id,facilities_id,name,address,postcode,city,district,state,tel,fax,website,email,image,latitude,longitude,likes,rating,status
1,21-0101003,KLINIK KESIHATAN BAGAN,"MLO 091, Pekan Parit Besar Bagan",83000,Bagan,Batu Pahat,Johor,07-4138107,,,,,1.849188,102.855339,0,0,NEW
2,21-0101011,KLINIK KESIHATAN TONGKANG PECAH,"PTD 1921, Jalan Besar Tongkang Pecah",97000,Linau,Batu Pahat,Johor,07-4152091,,,,,1.909484,102.952112,0,0,NEW
3,21-0101009,KLINIK KESIHATAN SENGGARANG,"Lot 6700, Jalan Besar Senggarang",83200,Minyak Beku,Batu Pahat,Johor,07-4291015,07-4291015,,,,1.749411,103.045797,0,0,NEW
4,21-0101009,KLINIK KESIHATAN SEMERAH,Jalan Muar Semerah,83000,Mukim 1 Lubok,Batu Pahat,Johor,07-4162685,,,,,1.88143,102.78493,0,0,NEW
5,21-0101010,KLINIK KESIHATAN SRI MEDAN,"Lot 5660, Pekan Sri Medan",83400,Mukim 18,Batu Pahat,Johor,07-4850272,,,,,1.9878,102.96149,0,0,NEW
6,21-0101008,KLINIK KESIHATAN PARIT YAANI,"Lot 9167, Pekan Parit Yaani",83710,Mukim 7,Batu Pahat,Johor,07-4846521,,,,,1.957593,103.027664,0,0,NEW
7,21-0101009,KLINIK KESIHATAN RENGIT,"TLO 52, Jalan Besar Rengit",83500,Rengit,Batu Pahat,Johor,07-4241224,07-4241224,,,,1.350095,104.223969,0,0,NEW
8,21-0101011,KLINIK KESIHATAN YONG PENG,"Lot 8905, Jalan Besar Yong Peng",87000,Semerong,Batu Pahat,Johor,07-4671361,,,,,2.008469,103.054958,0,0,NEW
9,21-0101003,KLINIK KESIHATAN BATU PAHAT,"PTD 6625, Jalan Kluang",83000,Simpang Kanan,Batu Pahat,Johor,07-4343355,07-4332434,,,,1.8501,102.942,0,0,NEW
10,21-0101009,KLINIK KESIHATAN PESTA,"PTD 13591, Kampung Kenang-Kenangan Dato' Onn, Jalan Perak",83000,Simpang Kanan,Batu Pahat,Johor,07-4343355,,,,,1.85602,102.94301,0,0,NEW
11,21-0101010,KLINIK KESIHATAN SRI GADING,"Lot 5360, Sri Gading, Jalan Kluang",83000,Simpang Kanan,Batu Pahat,Johor,07-4558216,,,,,1.854231,103.027944,0,0,NEW
12,21-0101007,KLINIK KESIHATAN PARIT SULONG,"Lot 608, Pekan Parit Sulong",83500,Simpang Kiri,Batu Pahat,Johor,07-4186204,,,,,1.977011,102.881409,0,0,NEW
13,21-0101002,KLINIK KESIHATAN AYER HITAM,"PTD 5728, Jln Besar ke Yong Peng",83000,Sri Gading,Batu Pahat,Johor,07-7581966,07-7581966,,,,1.925772,103.17746,0,0,NEW
14,21-0101007,KLINIK KESIHATAN PARIT RAJA,"MLO 261, Jalan Besar Air Hitam",86400,Sri Gading,Batu Pahat,Johor,07-4541237,07-4541237,,,,1.863694,103.10959,0,0,NEW
15,21-0101007,KLINIK KESIHATAN SRI MERLONG,"Lot 5086, Kampung Sri Merlong",83100,Sungai Kluang,Batu Pahat,Johor,07-4258511,,,,,1.733468,103.188941,0,0,NEW
16,21-0102005,KLINIK KESIHATAN GELANG PATAH,JKR 4176 Jalan Besar,81550,Gelang Patah,Johor Bahru,Johor,07-5101252,07-5101252,,,,1.447719,103.590287,0,0,NEW
17,21-0102018,KLINIK KESIHATAN PAYA MENGKUANG,"JKR 4091 Jln Kelasi, Desa Paya Mengkuang",81560,Gelang Patah,Johor Bahru,Johor,07-5080015,,,,,1.379188,103.589448,0,0,NEW
18,21-0102006,KLINIK KESIHATAN KEMPAS,"JKR 6044, Jalan Persiaran Tanjung",81200,Johor Bahru,Johor Bahru,Johor,07-2382060,07-2389843,,,,1.508123,103.707381,0,0,NEW
19,21-0102006,KLINIK KESIHATAN LARKIN,"PTD 4999, Jalan Sentosa",80350,Johor Bahru,Johor Bahru,Johor,07-2233249,,,,,1.496965,103.748751,0,0,NEW
20,21-0102008,KLINIK KESIHATAN MAHMOODIAH,"JKR 6274, Jalan Mahmoodiah",80100,Johor Bahru,Johor Bahru,Johor,07-2266166,07-2223166,,,,1.46247,103.74842,0,0,NEW
21,21-0102005,KLINIK KESIHATAN MAJIDEE,JKR 5909/D Jln Sekolah Kg Melayu Majidee,81100,Johor Bahru,Johor Bahru,Johor,07-3323535,,,,,1.51435,103.7575,0,0,NEW
22,21-0102042,KLINIK KESIHATAN SULTAN ISMAIL,"Jalan Persiaran Mutiara Emas Utama, Taman Mount Austin",81100,Johor Bahru,Johor Bahru,Johor,07-3577121,07-3577136,,,,1.547898,103.790287,0,0,NEW
23,21-0102010,KLINIK KESIHATAN TAMAN UNGKU TUN AMINAH,"Lot 9, 11, 15, 17 Jln Sri Orkid 36. Taman Sri Orkid",81300,Johor Bahru,Johor Bahru,Johor,07-5113727,07-5112728,,,,1.525611,103.666933,0,0,NEW
24,21-0102042,KLINIK KESIHATAN TAMAN UNIVERSITI,"Jalan Kebudayaan 28, Taman Universiti",81300,Johor Bahru,Johor Bahru,Johor,07-5216800,07-5216806,,,,1.537953,103.626726,0,0,NEW
25,21-0102010,KLINIK KESIHATAN TAMPOI,"JKR 3769-1, Batu 5, Jalan Skudai",81200,Johor Bahru,Johor Bahru,Johor,07-2361030,07-2381125,,,,1.492824,103.705879,0,0,NEW
26,21-0102010,KLINIK KESIHATAN TEBRAU,"JKR 5409,5410,5413, Jalan Kerambit",80050,Johor Bahru,Johor Bahru,Johor,07-3342067,07-3342305,,,,1.48875,103.77123,0,0,NEW
27,21-0102011,KLINIK KESIHATAN ULU TIRAM,"JKR 2156, Jln Besar Ulu Tiram",81800,Johor Bahru,Johor Bahru,Johor,07-8611902,,,,,1.596701,103.820655,0,0,NEW
28,21-0102017,KLINIK KESIHATAN CAHAYA BARU,"JKR 2116 Jalan Perak, Felda Cahaya Baru",81750,Masai,Johor Bahru,Johor,07-2612346,,,,,1.530564,103.931425,0,0,NEW
29,21-0102007,KLINIK KESIHATAN MASAI,"Lot 2188, Jalan Pekeliling",81750,Masai,Johor Bahru,Johor,07-2511882,07-2561089,,,,1.489205,103.885109,0,0,NEW
30,21-0102008,KLINIK KESIHATAN PASIR GUDANG,"JKR 5376, Jalan Kejiranan 8/1",81700,Pasir Gudang,Johor Bahru,Johor,07-2510594,07-2532153,,,,1.463943,103.906293,0,0,NEW
31,21-0103005,KLINIK KESIHATAN KAHANG BATU 22,"Lot 96, Jalan Mersing Batu 22",86700,Kahang,Kluang,Johor,07-7881229,,,,,2.21587,103.54075,0,0,NEW
32,21-0103005,KLINIK KESIHATAN KAHANG TIMUR,"PTD 14726, Jalan Merak",86007,Kahang,Kluang,Johor,07-7866633,,,,,2.08501,103.49439,0,0,NEW
33,21-0103006,KLINIK KESIHATAN LAYANG-LAYANG,"PTD 3578, Jalan Pejabat Pos, 81850 Layang-layang",81850,Kluang,Kluang,Johor,07-7527233,,,,,1.818464,103.473491,0,0,NEW
34,21-0103005,KLINIK KESIHATAN MENGKIBOL,"Lot 18993, Jln Mengkibol",86000,Kluang,Kluang,Johor,07-7765343,07-7765754,,,,2.00698,103.32225,0,0,NEW
35,21-0103007,KLINIK KESIHATAN PALOH,"Lot 120, Jalan Klinik",86600,Paloh,Kluang,Johor,07-7811059,,,,,2.187405,103.195591,0,0,NEW
36,21-0103009,KLINIK KESIHATAN RENGGAM,"PTD 2495, Jalan Simpang Renggam",86300,Renggam,Kluang,Johor,07-7535255,,,,,1.88333,103.39639,0,0,NEW
37,21-0103010,KLINIK KESIHATAN SIMPANG RENGGAM,"Lot 1794, Jln Rambutan",86200,Simpang Renggam,Kluang,Johor,07-7554143,07-7554144,,,,1.82613,103.30522,0,0,NEW
38,21-0103011,KLINIK KESIHATAN ULU BELITONG,Jalan Cemara,86007,Simpang Renggam,Kluang,Johor,07-7863333,,,,,1.94728,103.47502,0,0,NEW
39,21-0104006,KLINIK KESIHATAN SEDILI BESAR,"Lot 218, Jalan Hj Md Lazim",81900,Kambu,Kota Tinggi,Johor,07-8899870,,,,,1.926,104.12123,0,0,NEW
40,21-0104010,KLINIK KESIHATAN TANJONG SEDILI,Felda Sening,81900,Kambu,Kota Tinggi,Johor,07-8918370,,,,,1.92539,104.10883,0,0,NEW
41,21-0104002,KLINIK KESIHATAN AIR TAWAR 2,"Lot 1046, Jalan Pasar, Sg Rengit",81900,Kota Tinggi,Kota Tinggi,Johor,07-8932207,,,,,1.678369,104.021627,0,0,NEW
42,21-0104003,KLINIK KESIHATAN BANDAR TENGGARA,"PTB 496, Jln Tun Abd Majid",81900,Panti,Kota Tinggi,Johor,07-8966178,,,,,1.8633,103.62292,0,0,NEW
43,21-0104012,KLINIK KESIHATAN AIR TAWAR 5 (FELDA),Felda Air Tawar 5,81900,Tanjung Surat,Kota Tinggi,Johor,07-8952872,,,,,1.606242,104.088237,0,0,NEW
44,21-0104003,KLINIK KESIHATAN BANDAR MAS,"Lot 4106, Jalan Tun Habab",81900,Tanjung Surat,Kota Tinggi,Johor,07-8236155,07-8235700,,,,1.611851,104.153978,0,0,NEW
45,21-0104003,KLINIK KESIHATAN BANDAR PENAWAR,"Lot 758, Jalan Ar-Raudah",81900,Tanjung Surat,Kota Tinggi,Johor,07-8221064,,,,,1.555327,104.240174,0,0,NEW
46,21-0104008,KLINIK KESIHATAN PENGERANG,Felda Lok Heng,81900,Tanjung Surat,Kota Tinggi,Johor,07-8252455,,,,,1.365,104.10944,0,0,NEW
47,21-0104009,KLINIK KESIHATAN SENING,Felda Sg Mas,81900,Tanjung Surat,Kota Tinggi,Johor,07-8277398,,,,,1.479973,104.181573,0,0,NEW
48,21-0104010,KLINIK KESIHATAN SUNGAI RENGIT,Felda Bukit Waha,81900,Tanjung Surat,Kota Tinggi,Johor,07-826 3285,,,,,1.3501,104.22397,0,0,NEW
49,21-0104004,KLINIK KESIHATAN BUKIT BESAR,"PTD 568, Felda Bukit Besar, Jalan Depan Sekolah",81900,Ulu Sungai Johor,Kota Tinggi,Johor,07-8977255,,,,,1.76828,103.70677,0,0,NEW
50,21-0104004,KLINIK KESIHATAN BUKIT WAHA,"PTD 206, Jalan Pembangunan, Bandar Penawar",81900,Ulu Sungai Johor,Kota Tinggi,Johor,07-8925598,,,,,1.75213,104.07389,0,0,NEW
51,21-0104006,KLINIK KESIHATAN LOK HENG,"Lot 2548, Felda Air Tawar 2",81900,Ulu Sungai Johor,Kota Tinggi,Johor,07-8947188,,,,,1.74112,103.89785,0,0,NEW
52,21-0109040,KLINIK KESIHATAN KULAI,"Lot 5264, Jalan Pejabat Kesihatan",81000,Senai,Kulai Jaya,Johor,07-6625255,07-6624350,,,,1.64089,103.621652,0,0,NEW
53,21-0109006,KLINIK KESIHATAN KULAI BESAR,"Lot 6221, Batu 19 Jalan Air Hitam",81000,Senai,Kulai Jaya,Johor,07-6622403,07-6622603,,,,1.655536,103.607151,0,0,NEW
54,21-0110004,KLINIK KESIHATAN BUKIT SERAMPANG,Lot 4470,85220,Bukit Serampang,Ledang,Johor,06-9776961,06-9776861,,,,2.36313,102.78394,0,0,NEW
55,21-0110004,KLINIK KESIHATAN BUKIT GAMBIR,Lot 11961,84800,Gersik,Ledang,Johor,06-9762549,06-9761353,,,,2.363141,102.783946,0,0,NEW
56,21-0110005,KLINIK KESIHATAN GERSIK,PTD 7800,84700,Gersik,Ledang,Johor,06-9728780,06-9728780,,,,2.208967,102.705691,0,0,NEW
57,21-0110010,KLINIK KESIHATAN SUNGAI MATI,"Lot 1052, Klinik Kesihatan Sg Mati",84400,Serom,Ledang,Johor,06-9751054,06-9751054,,,,2.14669,102.56338,0,0,NEW
58,21-0110008,KLINIK KESIHATAN PAYAMAS,"PT 1405, Klinik Kesihatan Payamas, Jalan Payamas",84900,Tangkak,Ledang,Johor,06-9781861,07-9781861,,,,2.27507,102.54559,0,0,NEW
59,21-0110009,KLINIK KESIHATAN SAGIL,"PT 8814, Klinik Kesihatan Sagil, Jalan Segamat",84020,Tangkak,Ledang,Johor,06-9772244,,,,,2.303595,102.611964,0,0,NEW
60,21-0105004,KLINIK KESIHATAN ENDAU,"Lot 427, Jalan Sekolah",86900,Endau,Mersing,Johor,07-7943214,07-7943214,,,,2.6498,103.62331,0,0,NEW
61,21-0105005,KLINIK KESIHATAN JEMALUANG,"JKR 673, Jalan Kota Tinggi",86800,Jemaluang,Mersing,Johor,07-7921271,,,,,2.26769,103.85453,0,0,NEW
62,21-0105007,KLINIK KESIHATAN MERSING KANAN,"Lot 2464, Jalan Endau",86800,Mersing,Mersing,Johor,07-7992005,,,,,2.436755,103.834298,0,0,NEW
63,21-0105023,KLINIK KESIHATAN NITAR 1 (FELDA),Jalan Merbah,86800,Mersing,Mersing,Johor,07-7961633,07-7994145,,,,2.386458,103.712455,0,0,NEW
64,21-0105011,KLINIK KESIHATAN TENGGAROH II (FELDA),JKR 839-P,86800,Tenggaroh,Mersing,Johor,07-7911267,07-7994145,,,,2.15435,103.907318,0,0,NEW
65,21-0105011,KLINIK KESIHATAN TENGLU,"Lot 213, Jalan Endau",86800,Tenglu,Mersing,Johor,07-7991276,,,,,2.494703,103.800974,0,0,NEW
66,21-0106007,KLINIK KESIHATAN PAGOH,"Batu 15, Jalan Muar ke Parit Sulong",86100,Air Hitam,Muar,Johor,07-4212512,07-4212412,,,,2.151526,102.774849,0,0,NEW
67,21-0106005,KLINIK KESIHATAN KAMPUNG KENANGAN TUN DR. ISMAIL,Batu 6,84200,Bakri,Muar,Johor,06-9523563,06-9523566,,,,2.050051,102.585121,0,0,NEW
68,21-0106003,KLINIK KESIHATAN BAKRI,"MLO 2599, Jalan Muar ke Pagoh",84600,Jorak,Muar,Johor,06-9867007,06-9867067,,,,2.040522,102.65956,0,0,NEW
69,21-0106007,KLINIK KESIHATAN PARIT BAKAR,"Lot 2355, Jalan Muar ke Pagoh",84300,Jorak,Muar,Johor,06-9811324,06-9811320,,,,1.999948,102.608467,0,0,NEW
70,21-0106003,KLINIK KESIHATAN AIR HITAM,Bt. 27,84540,Lenga,Muar,Johor,07-4212512,07-4212412,,,,2.02758,102.76519,0,0,NEW
71,21-0106003,KLINIK KESIHATAN BANDAR MAHARANI,Jalan Salleh,84000,Muar,Muar,Johor,06-9811324,06-9539703,,,,2.05811,102.57649,0,0,NEW
72,21-0106004,KLINIK KESIHATAN BUKIT PASIR,"No.264-5 Jln Kenangan 1, Tmn Tun Dr Ismail",84000,Muar,Muar,Johor,06-9856196,06-9856296,,,,2.099233,102.639881,0,0,NEW
73,21-0106006,KLINIK KESIHATAN LENGA,"Lot 1507, Jalan Sg. Abong",84000,Muar,Muar,Johor,06-9711445,06-9712357,,,,2.25921,102.83195,0,0,NEW
74,21-0106008,KLINIK KESIHATAN PARIT YUSOF,"Lot 24, Jalan Temenggung Ahmad",84150,Parit Jawa,Muar,Johor,06-4161277,07-4161377,,,,1.896308,102.760324,0,0,NEW
75,21-0106010,KLINIK KESIHATAN SRI MENANTI,"Lot, 3692, Jalan Muar ke Batu Pahat",84160,Sri Menanti,Muar,Johor,06-9881059,06-9881049,,,,1.910041,102.687046,0,0,NEW
76,21-0106007,KLINIK KESIHATAN PARIT JAWA,"Lot 241, Jalan Muar ke Batu Pahat",83500,Sungai Balang,Muar,Johor,07-4164277,06-9874223,,,,1.961045,102.642264,0,0,NEW
77,21-0107008,KLINIK KESIHATAN PENEROK,Jln Kukup ,82300,Air Masin,Pontian,Johor,07-6960311,,,,,1.3793,103.44175,0,0,NEW
78,21-0107005,KLINIK KESIHATAN KAYU ARA PASONG,Jln Kayu Ara Pasong,82010,Api-Api,Pontian,Johor,07-6951355,,,,,1.55899,103.40154,0,0,NEW
79,21-0107004,KLINIK KESIHATAN BENUT,Jalan Jaafar,82200,Benut,Pontian,Johor,07-6903633,07-6903633,,,,1.6457,103.25844,0,0,NEW
80,21-0107007,KLINIK KESIHATAN PARIT ISMAIL,Jln Parit Ismail,82200,Benut,Pontian,Johor,07-6903671,,,,,1.70056,103.28805,0,0,NEW
81,21-0107008,KLINIK KESIHATAN PEKAN NANAS,Jalan Pekan Nanas,81500,Pengkalan Raja,Pontian,Johor,07-6994352,07-6994352,,,,1.5083,103.51215,0,0,NEW
82,21-0107002,KLINIK KESIHATAN AYER BALOI,Jalan Ayer Baloi,82100,Pontian,Pontian,Johor,07-6931213,,,,,1.59209,103.33129,0,0,NEW
83,21-0107009,KLINIK KESIHATAN PONTIAN ,"Lot 8695, Jalan Alsagoff",82000,Pontian,Pontian,Johor,07-6868211,07-6873092,,,,1.50111,103.383333,0,0,NEW
84,21-0107009,KLINIK KESIHATAN SERKAT,Jalan Serkat,82030,Pontian,Pontian,Johor,07-6960359,,,,,1.303094,103.488896,0,0,NEW
85,21-0108003,KLINIK KESIHATAN BANDAR PUTRA,"Jalan Genuang, Bandar Putra",85000,Bandar Putra,Segamat,Johor,07-9436099,07-9431499,,,,2.49426,102.86282,0,0,NEW
86,21-0108003,KLINIK KESIHATAN BATU ANAM,"Jalan Bukit Cantik, Jalan Muar",85100,Batu Anam,Segamat,Johor,07-9499249,07-9499249,,,,2.5752,102.70816,0,0,NEW
87,21-0108004,KLINIK KESIHATAN BEKOK,Jalan Gunung,86500,Bekok,Segamat,Johor,07-9221241,07-9221241,,,,2.29801,103.13418,0,0,NEW
88,21-0108004,KLINIK KESIHATAN BULOH KASAP,"Pekan Air Panas, Labis",85010,Buluh Kasap,Segamat,Johor,07-9441241,07-9441241,,,,2.544737,102.770492,0,0,NEW
89,21-0108005,KLINIK KESIHATAN JEMENTAH,Jalan Muar,85200,Jementah,Segamat,Johor,07-9471321,07-9471321,,,,2.43948,102.68464,0,0,NEW
90,21-0108006,KLINIK KESIHATAN LABIS,"Jalan Muar, Jementah",85300,Labis,Segamat,Johor,07-9251500,07-9254591,,,,2.38043,103.0189,0,0,NEW
91,21-0108008,KLINIK KESIHATAN PEKAN AIR PANAS,Felda Pemanis,85300,Pekan Air Panas,Segamat,Johor,07-9287009,07-9287009,,,,2.47231,103.05798,0,0,NEW
92,21-0108008,KLINIK KESIHATAN PEMANIS ,"Felda Pemanis, Jalan Tasik Alai, Buluh Kasap",85009,Pemanis,Segamat,Johor,07-9456673,07-9456673,,,,2.59987,102.90162,0,0,NEW
93,21-0108004,KLINIK KESIHATAN CHAAH,Chaah,85400,Segamat,Segamat,Johor,07-9261236,07-9261236,,,,2.24736,103.04128,0,0,NEW
94,21-0108009,KLINIK KESIHATAN SEGAMAT,Jalan Muar,85000,Segamat,Segamat,Johor,07-7931334,07-9313333,,,,2.50516,102.81534,0,0,NEW
95,21-0201004,KLINIK KESIHATAN KAMPUNG LALANG,Jalan Weng,9100,Baling,Baling,Kedah,04-4732555,04-4705178,,,,5.79484,100.898119,0,0,NEW
96,21-0201005,KLINIK KESIHATAN KUALA KETIL,"Mukim Tawar, Jalan Kuala Ketil",9300,Baling,Baling,Kedah,04-4163355,04-4164462,,,,5.60554,100.65335,0,0,NEW
97,21-0201005,KLINIK KESIHATAN KUPANG,"Jalan Kuala Ketil, Kupang",9200,Baling,Baling,Kedah,04-4766355,04-4705178,,,,5.63485,100.83376,0,0,NEW
98,21-0201006,KLINIK KESIHATAN MALAU,Malau,9020,Baling,Baling,Kedah,04-4061700,,,,,5.50261,100.7216,0,0,NEW
99,21-0201007,KLINIK KESIHATAN PARIT PANJANG,Mukim Teloi Kanan,9120,Baling,Baling,Kedah,04-4761246,04-4705178,,,,5.70405,100.74437,0,0,NEW
100,21-0201008,KLINIK KESIHATAN TAWAR,Jalan Kuala Ketil,9310,Baling,Baling,Kedah,04-4766308,04-4705178,,,,5.59514,100.771,0,0,NEW
101,21-0202003,KLINIK KESIHATAN BANDAR BAHARU,Bandar Baharu,34950,Bandar Baharu,Bandar Baharu,Kedah,05-7178232,04-4079611,,,,5.12626,100.51265,0,0,NEW
102,21-0202006,KLINIK KESIHATAN LUBUK BUNTAR,"Lubuk Buntar, Jalan Serdang",34950,Bandar Baharu,Bandar Baharu,Kedah,04-4077320,04-4079611,,,,5.14409,100.59026,0,0,NEW
103,21-0202007,KLINIK KESIHATAN SERDANG,"Serdang, Jalan Pecah Batu",9800,Serdang,Bandar Baharu,Kedah,04-4076100,04-4079611,,,,5.212117,100.615617,0,0,NEW
104,21-0203002,KLINIK KESIHATAN ALOR JANGGUS,Jalan Alor Janggus,6250,Alor Setar,Kota Setar,Kedah,04-7301985,04-7347295,,,,6.17273,100.30784,0,0,NEW
105,21-0203003,KLINIK KESIHATAN BANDAR ALOR SETAR,"Blok A, Aras 1 Hospital Alor Setar (Hospital Lama), Lebuhraya Darulaman",5100,Alor Setar,Kota Setar,Kedah,04-7308353,04-7347295,,,,6.1414,100.37105,0,0,NEW
106,21-0203034,KLINIK KESIHATAN DATO KUMBAR,Jalan Datuk Kumbar,6500,Alor Setar,Kota Setar,Kedah,04-7306319,04-7410090,,,,6.121003,100.399488,0,0,NEW
107,21-0203004,KLINIK KESIHATAN JALAN PUTRA,Merong,5150,Alor Setar,Kota Setar,Kedah,04-7355161,,,,,6.202778,100.477778,0,0,NEW
108,21-0203005,KLINIK KESIHATAN KOTA SARANG SEMUT,"Jalan Pendang, Kota Sarang Semut",6800,Alor Setar,Kota Setar,Kedah,04-7691333,,,,,5.97459,100.40313,0,0,NEW
109,21-0203005,KLINIK KESIHATAN KUALA KEDAH,"Batu 6, Jalan Kuala Kedah",5600,Alor Setar,Kota Setar,Kedah,04-7621526,04-7347295,,,,6.09872,100.30121,0,0,NEW
110,21-0203007,KLINIK KESIHATAN SIMPANG EMPAT,"Simpang Empat, Mukim Kangkong",6600,Alor Setar,Kota Setar,Kedah,04-7621526,,,,,6.02598,100.3859,0,0,NEW
111,21-0203007,KLINIK KESIHATAN SIMPANG KUALA,Simpang Kuala,5400,Alor Setar,Kota Setar,Kedah,04-7720583,04-7347295,,,,6.09694,100.36112,0,0,NEW
112,21-0203006,KLINIK KESIHATAN LANGGAR,Jalan Langgar,6500,Langgar,Kota Setar,Kedah,04-7876648,04-7710116,,,,6.14762,100.42497,0,0,NEW
113,21-0203007,KLINIK KESIHATAN POKOK SENA,782,6400,Pokok Sena,Kota Setar,Kedah,04-7821355,04-7822958,,,,6.16801,100.51838,0,0,NEW
114,21-0204004,KLINIK KESIHATAN BEDONG,Bedong,8100,Bedong,Kuala Muda,Kedah,04-4583333,04-4710076,,,,5.72292,100.50646,0,0,NEW
115,21-0204005,KLINIK KESIHATAN KOTA KUALA MUDA,"Jalan Pantai Merdeka, Jalan Sungai Mas",8500,Kuala Muda,Kuala Muda,Kedah,04-4374225,04-4210076,,,,5.5875,100.37475,0,0,NEW
116,21-0204006,KLINIK KESIHATAN MERBOK,Bandar Merbok,8400,Merbok,Kuala Muda,Kedah,04-4572214,04-4210076,,,,5.722667,100.409472,0,0,NEW
117,21-0204007,KLINIK KESIHATAN SUNGAI LALANG,"Lot 15 & 16, Taman Lembah Permai",8100,Sungai Lalang,Kuala Muda,Kedah,04-4594127,04-4210076,,,,5.715722,100.534861,0,0,NEW
118,21-0204003,KLINIK KESIHATAN BAKAR ARANG,Jalan Taman Intan,8000,Sungai Petani,Kuala Muda,Kedah,04-4220294,04-4210076,,,,5.63491,100.47812,0,0,NEW
119,21-0204003,KLINIK KESIHATAN BANDAR SUNGAI PETANI,Jalan Badlishah,8000,Sungai Petani,Kuala Muda,Kedah,04-4213333,04-4210076,,,,5.64704,100.49774,0,0,NEW
120,21-0204004,KLINIK KESIHATAN BUKIT SELAMBAU,Bukit Selambu,8010,Sungai Petani,Kuala Muda,Kedah,04-4193312,04-4210076,,,,5.6898,100.632722,0,0,NEW
121,21-0205002,KLINIK KESIHATAN AYER HITAM,Ayer Hitam,6150,Ayer Hitam,Kubang Pasu,Kedah,04-7942101,04-7943106,,,,6.24043,100.24638,0,0,NEW
122,21-0205005,KLINIK KESIHATAN LAKA TEMIN,Laka Temin,6050,Bukit Kayu Hitam,Kubang Pasu,Kedah,04-9221655,04-9221655,,,,6.50386,100.42044,0,0,NEW
123,21-0205004,KLINIK KESIHATAN CHANGLOON,Changloon,6010,Changloon,Kubang Pasu,Kedah,04-9241277,04-9241091,,,,6.425149,100.429344,0,0,NEW
124,21-0205003,KLINIK KESIHATAN BANAI,Banai,6000,Jitra,Kubang Pasu,Kedah,04-9171382,04-9170375,,,,6.220883,100.458138,0,0,NEW
125,21-0205008,KLINIK KESIHATAN TUNJANG,Tunjang,6000,Jitra,Kubang Pasu,Kedah,04-9291524,04-9291380,,,,6.29783,100.36599,0,0,NEW
126,21-0205004,KLINIK KESIHATAN KEPALA BATAS,Kepala Batas,6200,Kepala Batas,Kubang Pasu,Kedah,04-7144820,04-7146519,,,,6.20393,100.41635,0,0,NEW
127,21-0205005,KLINIK KESIHATAN KODIANG,Kodiang,6100,Kodiang,Kubang Pasu,Kedah,04-9250178,04-9250069,,,,6.396452,100.304901,0,0,NEW
128,21-0206004,KLINIK KESIHATAN KARANGAN,Jalan Mahang,9700,Karangan,Kulim,Kedah,04-4056261,04-4911843,,,,5.42722,100.65826,0,0,NEW
129,21-0206005,KLINIK KESIHATAN KULIM,Jalan Hospital Lama,9000,Kulim,Kulim,Kedah,04-4905533,04-4911843,,,,5.36742,100.55765,0,0,NEW
130,21-0206008,KLINIK KESIHATAN TAMAN SELASIH,"Lot 3302, Taman Selasih",9000,Kulim,Kulim,Kedah,04-4917377,,,,,5.37832,100.53767,0,0,NEW
131,21-0206006,KLINIK KESIHATAN LUNAS,Jalan Ara Kuda,9600,Lunas,Kulim,Kedah,04-4844355,,,,,5.43012,100.5305,0,0,NEW
132,21-0206006,KLINIK KESIHATAN MERBAU PULAS,"Jalan Kuala Ketil, Merbau Pulas",9410,Padang Serai,Kulim,Kedah,04-4163852,04-4911843,,,,5.5531,100.63492,0,0,NEW
133,21-0206007,KLINIK KESIHATAN PADANG SERAI,Jalan Lunas,9400,Padang Serai,Kulim,Kedah,04-4855655,04-4580084,,,,5.51039,100.55393,0,0,NEW
134,21-0206006,KLINIK KESIHATAN MAHANG,"Lot 919, Jalan Mahang",9800,Serdang,Kulim,Kedah,04-4041333,,,,,5.32243,100.74928,0,0,NEW
135,21-0207030,KLINIK KESIHATAN TEMONYONG,Padang Maksirat,7100,Langkawi,Langkawi,Kedah,04-9531133,,,,,6.294814,99.737645,0,0,NEW
136,21-0207002,KLINIK KESIHATAN AIR HANGAT,Mukim Air Hangat,7000,Langkawi          ,Langkawi,Kedah,04-9591959,,,,,6.422483,99.80381,0,0,NEW
137,21-0207005,KLINIK KESIHATAN KUAH,Jalan Air Hangat,7000,Langkawi,Langkawi          ,Kedah,04-9663490,04-9667533,,,,6.32289,99.84751,0,0,NEW
138,21-0207006,KLINIK KESIHATAN PADANG MATSIRAT,Padang Mat Sirat,7100,Langkawi          ,Langkawi          ,Kedah,04-9551355,,,,,6.35012,99.73174,0,0,NEW
139,21-0208034,"KLINIK KESIHATAN DURIAN BURUNG",Kuala Nerang,6300,Kuala Nerang,Padang Terap,Kedah,04-7860013,04-7860015,,,,6.282253, 100.599122,0,0,NEW
140,21-0208006,KLINIK KESIHATAN LUBUK MERBAU,Lubuk Merbau,6300,Kuala Nerang,Padang Terap,Kedah,04-7520129,04-7522104,,,,6.00064,100.72532,0,0,NEW
141,21-0208006,KLINIK KESIHATAN NAKA,Naka,6300,Kuala Nerang,Padang Terap,Kedah,04-7851229,04-7853124,,,,6.14058,100.66835,0,0,NEW
142,21-0208023,KLINIK KESIHATAN PEDU,Pedu,6300,Kuala Nerang,Padang Terap,Kedah,04-7868717,,,,,6.224971,100.654984,0,0,NEW
143,21-0209005,KLINIK KESIHATAN KUBUR PANJANG,Kubur Panjang,6700,Pendang,Pendang,Kedah,04-7846355,04-7846305,,,,6.08913,100.5537,0,0,NEW
144,21-0209007,KLINIK KESIHATAN PENDANG,Jalan Sungai Tiang,6700,Pendang,Pendang,Kedah,04-7596412,04-7595041,,,,5.98549,100.47918,0,0,NEW
145,21-0209007,KLINIK KESIHATAN SUNGAI TIANG,Jalan Sungai Tiang,6720,Pendang,Pendang,Kedah,04-7541135,04-7542617,,,,5.99566,100.59588,0,0,NEW
146,21-0210004,KLINIK KESIHATAN JENIANG,Jalan Jeniang,8700,Gurun,Sik,Kedah,04-4641200,04-4641201,,,,5.81344,100.64575,0,0,NEW
147,21-0210015,KLINIK KESIHATAN KAMPONG BETONG,Kampong Betong,8200,Mukim Jeneri,Sik,Kedah,019-4776363,,,,,5.93592,100.682836,0,0,NEW
148,21-0210004,KLINIK KESIHATAN GULAU,Mukim Sik,8210,Sik,Sik,Kedah,04-7522826,04-4690602,,,,6.02782,100.811,0,0,NEW
149,21-0211004,KLINIK KESIHATAN GUAR CHEMPEDAK,Guar Campak,8800,Guar Chempedak,Yan,Kedah,04-4682396,04-4684251,,,,5.85402,100.45989,0,0,NEW
150,21-0211024,KLINIK KESIHATAN PERMATANG BULOH,Permatang Buluh,6800,Kota Sarang Semut,Yan,Kedah,04-4471451,,,,,5.960015,100.362205,0,0,NEW
151,21-0211007,KLINIK KESIHATAN SUNGAI LIMAU DALAM,Sungai Limau Dalam,6910,Yan,Yan,Kedah,04-7691607,04-7696975,,,,5.90127,100.3815,0,0,NEW
152,21-0301002,KLINIK KESIHATAN BACHOK,Bachok,16300,Bachok,Bachok,Kelantan,09-7789333,09-7788680,,,,6.05617,102.39908,0,0,NEW
153,21-0301003,KLINIK KESIHATAN BALAI,Balai,16300,Bachok,Bachok,Kelantan,09-7767206,,,,,6.10605,102.37294,0,0,NEW
154,21-0301003,KLINIK KESIHATAN BERIS ,Kubor Besar,16300,Bachok,Bachok,Kelantan,09-7788633,09-7788680,,,,6.07368,102.36485,0,0,NEW
155,21-0301005,KLINIK KESIHATAN GUNONG,Gunong,16390,Bachok,Bachok,Kelantan,09-7834333,09-7788680,,,,5.98927,102.34769,0,0,NEW
156,21-0301018,"KLINIK KESIHATAN KANDIS",Kandis,16300,Bachok,Bachok,Kelantan,09-7416732,09-7472818,,,,5.949721, 102.444999,0,0,NEW
157,21-0301006,KLINIK KESIHATAN MAHLIGAI,Mahligai,16400,Bachok,Bachok,Kelantan,09-7834213,,,,,5.95622,102.30102,0,0,NEW
158,21-0301031,KLINIK KESIHATAN BERIS PANCHOR,Beris Panchor,16020,Tawar,Bachok,Kelantan,09-7788633,09-7767358,,,,6.128631,102.350877,0,0,NEW
159,21-0302002,KLINIK KESIHATAN ARING,Aring,18300,Gua Musang,Gua Musang,Kelantan,09-9286333,09-9292 333,,,,4.95389,102.29969,0,0,NEW
160,21-0302004,KLINIK KESIHATAN BERTAM BARU,Bertam Baru,18300,Gua Musang,Gua Musang,Kelantan,09-9126626,09-9126 626,,,,5.14255,102.04844,0,0,NEW
161,21-0302004,KLINIK KESIHATAN CHIKU 3,Chiku 3,18300,Gua Musang,Gua Musang,Kelantan,09-9285333,09-9285175,,,,4.97249,102.20688,0,0,NEW
162,21-0302003,KLINIK KESIHATAN GUA MUSANG,Gua Musang,18300,Gua Musang,Gua Musang,Kelantan,09-9121333,,,,,4.87997,101.96533,0,0,NEW
163,21-0302005,KLINIK KESIHATAN JERAM TEKOH,Jeram Tekoh,18300,Gua Musang,Gua Musang,Kelantan,09-9126308,,,,,4.99824,102.07455,0,0,NEW
164,21-0302019,KLINIK KESIHATAN KUALA BETIS,Kuala Betis,18300,Gua Musang,Gua Musang,Kelantan,09-7416732,09-7472818,,,,4.900583,101.787778,0,0,NEW
165,21-0302021,KLINIK KESIHATAN LEBIR,Lebir,18300,Gua Musang,Gua Musang,Kelantan,09-7416732,09-7472818,,,,5.152521,102.33991,0,0,NEW
166,21-0302031,"KLINIK KESIHATAN LOJING",Lojing,18300,Gua Musang,Gua Musang,Kelantan,09-9221406,,,,,4.860046, 101.963387,0,0,NEW
167,21-0303008,KLINIK KESIHATAN BATU MELINTANG,Kampung Batu Melintang,17520,Batu Melintang,Jeli,Kelantan,09-7416732,09-7472818,,,,5.704542,101.733728,0,0,NEW
168,21-0303002,KLINIK KESIHATAN AYER LANAS,Ayer Lanas,17700,Jeli,Jeli,Kelantan,09-9468333,09-9440275,,,,5.77885,101.8865,0,0,NEW
169,21-0303002,KLINIK KESIHATAN JELI,Jeli,17600,Jeli,Jeli,Kelantan,09-9440733,09-9440275,,,,5.71663,101.747139,0,0,NEW
170,21-0303005,KLINIK KESIHATAN KUALA BALAH,Kuala Balah,17600,Kuala Balah,Jeli,Kelantan,09-9361233,09-9362578,,,,5.445019,101.913192,0,0,NEW
171,21-0303021,KLINIK KESIHATAN LUBOK BONGOR,Lubok Bongor,17600,Kuala Balah,Jeli,Kelantan,09-7416732,09-7472818,,,,5.559569,101.88383,0,0,NEW
172,21-0304003,KLINIK KESIHATAN BADANG,Jalan Pantai Cahaya Bulan,15350,Kota Bharu,Kota Bharu,Kelantan,09-7730333,,,,,6.1878,102.26742,0,0,NEW
173,21-0304003,KLINIK KESIHATAN BANDAR KOTA BHARU,Jalan Hospital,15586,Kota Bharu,Kota Bharu,Kelantan,09-7475770,09-7472 821,,,,6.125518,102.242912,0,0,NEW
174,21-0304004,KLINIK KESIHATAN CABANG 3 PEROL,Cabang 3 Perol,16010,Kota Bharu,Kota Bharu,Kelantan,09-7123335,,,,,6.01711,102.242478,0,0,NEW
175,21-0304005,KLINIK KESIHATAN KEDAI LALAT,"Bandar Kota Jembal, Kedai Lalat",16150,Kota Bharu,Kota Bharu,Kelantan,09-7666733,09-7941 355,,,,6.11402,102.30685,0,0,NEW
176,21-0304005,KLINIK KESIHATAN KETEREH,Ketereh,16450,Kota Bharu,Kota Bharu,Kelantan,09-7886055,,,,,5.957736,102.254891,0,0,NEW
177,21-0304019,KLINIK KESIHATAN KOK LANAS,"Km 25, Jalan Kuala Krai",16450,Kota Bharu,Kota Bharu,Kelantan,09-7880900,,,,,5.91478,102.244047,0,0,NEW
178,21-0304005,KLINIK KESIHATAN KUBANG KERIAN,Jalan Istana Mahkota,16150,Kota Bharu,Kota Bharu,Kelantan,09-7667330,,,,,6.091269,102.27243,0,0,NEW
179,21-0304006,KLINIK KESIHATAN LUNDANG PAKU,Jalan Dewa Beta,15100,Kota Bharu,Kota Bharu,Kelantan,09-7964277,,,,,5.994381,102.200672,0,0,NEW
180,21-0304006,KLINIK KESIHATAN PENAMBANG,"Lot No 348-A Jalan Pantai Cahaya Bulan, Kg Penambang",15350,Kota Bharu,Kota Bharu,Kelantan,09-7442760,09-7474519,,,,6.147089,102.238427,0,0,NEW
181,21-0304006,KLINIK KESIHATAN PENGKALAN CHEPA,Pengkalan Chepa,16100,Kota Bharu,Kota Bharu,Kelantan,09-7714030,09-7714031,,,,6.16232,102.28063,0,0,NEW
182,21-0304006,KLINIK KESIHATAN PERINGAT,Jalan Melor,16400,Kota Bharu,Kota Bharu,Kelantan,09-7127433,,,,,6.02012,102.28514,0,0,NEW
183,21-0304017,"KLINIK KESIHATAN PINTU GENG",Jalan Pintu Geng,15000,Kota Bharu,Kota Bharu,Kelantan,09-7416732,09-7472818,,,,6.101671, 102.230999,0,0,NEW
184,21-0304007,KLINIK KESIHATAN WAKAF CHE YEH,Jalan Pasir Mas Salor,15100,Kota Bharu,Kota Bharu,Kelantan,09-7446333,09-7418708,,,,6.084371,102.236489,0,0,NEW
185,21-0305003,KLINIK KESIHATAN BANDAR KUALA KRAI,Jalan Pintas,18000,Kuala Krai,Kuala Krai,Kelantan,09-9605667,09-9663303,,,,5.538634,102.204046,0,0,NEW
186,21-0305010,"KLINIK KESIHATAN BIAK",Biak,18000,Kuala Krai,Kuala Krai,Kelantan,09-7416732,09-7472818,,,,5.553553, 102.198813,0,0,NEW
187,21-0305004,KLINIK KESIHATAN DABONG,Dadong,18200,Kuala Krai,Kuala Krai,Kelantan,09-9602221,09-9609024,,,,5.37517,102.01022,0,0,NEW
188,21-0305016,KLINIK KESIHATAN LALOH,Laloh,18000,Kuala Krai,Kuala Krai,Kelantan,09-9668826,,,,,5.309497,102.271411,0,0,NEW
189,21-0305006,KLINIK KESIHATAN MANIK URAI,Manek Urai,18050,Kuala Krai,Kuala Krai,Kelantan,09-9665133,09-9606873,,,,5.38148,102.24283,0,0,NEW
190,21-0305008,"KLINIK KESIHATAN MENGKEBANG",Mengkebang,18000,Kuala Krai,Kuala Krai,Kelantan,09-7416732,09-7472818,,,,5.518061, 102.274999,0,0,NEW
191,21-0305006,KLINIK KESIHATAN PAHI,Pahi,18000,Kuala Krai,Kuala Krai,Kelantan,09-9609343,09-9609024,,,,5.48589,102.22268,0,0,NEW
192,21-0306003,KLINIK KESIHATAN BATU 30,Jalan Kuala Krai,18500,Machang,Machang,Kelantan,09-9752355,,,,,5.710186,102.210601,0,0,NEW
193,21-0306009,"KLINIK KESIHATAN BELUKAR",Jalan Machang-Pasir Puteh,18500,Machang,Machang,Kelantan,09-7416732,09-7472818,,,,5.761051, 102.219248,0,0,NEW
194,21-0306006,KLINIK KESIHATAN LABOK,Labok,18500,Machang,Machang,Kelantan,09-7878533,,,,,5.830814,102.225228,0,0,NEW
195,21-0306007,KLINIK KESIHATAN PULAI CHONDONG,Pulau Chondong,16600,Machang,Machang,Kelantan,09-7878333,,,,,5.872973,102.23224,0,0,NEW
196,21-0306007,KLINIK KESIHATAN TEMANGAN,Temangan,18400,Machang,Machang,Kelantan,09-9752633,,,,,5.71594,102.15521,0,0,NEW
197,21-0307003,KLINIK KESIHATAN BANDAR PASIR MAS,Bandar Pasir Mas,17000,Pasir Mas,Pasir Mas,Kelantan,09-7901333,09-7907497,,,,6.04557,102.14015,0,0,NEW
198,21-0307004,KLINIK KESIHATAN CHEKOK,Chekok,17060,Pasir Mas,Pasir Mas,Kelantan,09-7942333,09-7942033,,,,5.919025,102.187647,0,0,NEW
199,21-0307012,KLINIK KESIHATAN GUAL PERIOK,Gual Periok,17200,Pasir Mas,Pasir Mas,Kelantan,09-7416732,09-7472818,,,,6.029609,102.018306,0,0,NEW
200,21-0307005,KLINIK KESIHATAN KANGKONG,Jalan Pasir Mas Tanah Merah,17040,Pasir Mas,Pasir Mas,Kelantan,09-7943155,09-7943393,,,,5.994649,102.188054,0,0,NEW
201,21-0307020,"KLINIK KESIHATAN KUAL",Kubang Kual,17000,Pasir Mas,Pasir Mas,Kelantan,09-7416732,09-7472818,,,,5.969170, 102.015999,0,0,NEW
202,21-0307006,KLINIK KESIHATAN MERANTI,"Jalan Bonggol Che Wan, Meranti",17000,Pasir Mas,Pasir Mas,Kelantan,09-7975057,09-7975057,,,,6.096198,102.101019,0,0,NEW
203,21-0307007,KLINIK KESIHATAN TENDONG,Tedong,17030,Pasir Mas,Pasir Mas,Kelantan,09-7198333,09-7193014,,,,6.069967,102.207637,0,0,NEW
204,21-0307007,KLINIK KESIHATAN TO'UBAN,To`Uban,17050,Pasir Mas,Pasir Mas,Kelantan,09-7941333,09-7942023,,,,5.965611,102.150903,0,0,NEW
205,21-0307007,KLINIK KESIHATAN RANTAU PANJANG,Jalan Lubok Stol,17200,Rantau Panjang,Pasir Mas,Kelantan,09-7950333,09-7952975,,,,6.013674,101.97289,0,0,NEW
206,21-0308008,KLINIK KESIHATAN BANGGOL PA' ESAH,Kampung Banggul Pa'Esah,16800,Pasir Puteh,Pasir Puteh,Kelantan,09-7416732,09-7472818,,,,5.863541,102.338114,0,0,NEW
207,21-0308004,KLINIK KESIHATAN CHERANG RUKU,Semerak,16700,Pasir Puteh,Pasir Puteh,Kelantan,09-6912333,,,,,5.868321,102.486734,0,0,NEW
208,21-0308004,KLINIK KESIHATAN GAAL,Gaal,16800,Pasir Puteh,Pasir Puteh,Kelantan,09-7867199,,,,,5.788889,102.416944,0,0,NEW
209,21-0308005,KLINIK KESIHATAN JERAM,Jeram,16800,Pasir Puteh,Pasir Puteh,Kelantan,09-7867033,09-7891478,,,,5.79962,102.37161,0,0,NEW
210,21-0308007,KLINIK KESIHATAN SELISING,Selising,16410,Pasir Puteh,Pasir Puteh,Kelantan,09-7891433,09-7891478,,,,5.896667,102.332778,0,0,NEW
211,21-0309003,KLINIK KESIHATAN BATU GAJAH,"Batu 13, Jalan Tanah Merah- Jeli",17510,Tanah Merah,Tanah Merah,Kelantan,09-9581033,09-9581228,,,,5.81099,101.982327,0,0,NEW
212,21-0309005,KLINIK KESIHATAN GUAL IPOH,Kg Gual Ipoh,17500,Tanah Merah,Tanah Merah,Kelantan,09-9551949,,,,,5.74327,102.05192,0,0,NEW
213,21-0309005,KLINIK KESIHATAN KEMAHANG,Felda Kemahang,17500,Tanah Merah,Tanah Merah,Kelantan,09-9581192,,,,,5.855361,102.005575,0,0,NEW
214,21-0310003,KLINIK KESIHATAN BANDAR TUMPAT,Bandar Tumpat,16200,Tumpat,Tumpat,Kelantan,09-7255500,09-7252846,,,,6.19397,102.17041,0,0,NEW
215,21-0310009,"KLINIK KESIHATAN BENDANG KERIAN",Bendang Kerian,16200,Tumpat,Tumpat,Kelantan,09-7416732,09-7472818,,,,6.160611, 102.165999,0,0,NEW
216,21-0310004,KLINIK KESIHATAN BUNOHAN,Jalan Pengkalan Kubur,16200,Tumpat,Tumpat,Kelantan,09-7211033,09-7212997,,,,6.182428,102.116375,0,0,NEW
217,21-0310006,KLINIK KESIHATAN PENGKALAN KUBOR,Pengkalan Kubor,16200,Tumpat,Tumpat,Kelantan,09-7211570,09-7213126,,,,6.215414,102.111172,0,0,NEW
218,21-0310007,KLINIK KESIHATAN SUNGAI PINANG,"Sungai Pinang, Palekbang",16040,Tumpat,Tumpat,Kelantan,09-7255133,09-7254843,,,,6.177484,102.232982,0,0,NEW
219,21-0310026,"KLINIK KESIHATAN TELOK RENJUNA",Telok Rejuna,16200,Tumpat,Tumpat,Kelantan,09-7416732,09-7472818,,,,6.195621, 102.224999,0,0,NEW
220,21-0310007,KLINIK KESIHATAN WAKAF BHARU,Wakaf Baru,16250,Tumpat,Tumpat,Kelantan,09-7196333,09-7196225,,,,6.12243,102.20248,0,0,NEW
221,21-0401001,KLINIK KESIHATAN HUTAN PERCHA,"KM 35, Felda Tun Ghafar Baba",78000,Alor Gajah,Alor Gajah,Melaka,06-5548224,,,,,2.442639,102.300906,0,0,NEW
222,21-0401002,KLINIK KESIHATAN MACAP BARU,"KM 17, Kampung Macap Baru",78000,Alor Gajah,Alor Gajah,Melaka,06-5252333,,,,,2.37667,102.33814,0,0,NEW
223,21-0401002,KLINIK KESIHATAN PADANG SEBANG,"Batu 19 1/2, Kampung Padang Sebang",78000,Alor Gajah,Alor Gajah,Melaka,06-5547932,,,,,2.42607,102.24916,0,0,NEW
224,21-0401002,KLINIK KESIHATAN SIMPANG AMPAT,"Batu 22, Kampung Simpang Empat",78000,Alor Gajah,Alor Gajah,Melaka,06-5529497,,,,,2.440828,102.184194,0,0,NEW
225,21-0401001,KLINIK KESIHATAN DURIAN TUNGGAL,"KM 16, Padang Keladi",76100,Durian Tunggal,Alor Gajah,Melaka,06-5531133,06-5534007,,,,2.310834,102.286363,0,0,NEW
226,21-0401011,KLINIK KESIHATAN TEBONG,Tebong,76100,Durian Tunggal,Alor Gajah,Melaka,05-4486716,05-5566249,,,,2.461879,102.34026,0,0,NEW
227,21-0401002,KLINIK KESIHATAN KUALA SUNGAI BARU,Pekan Kuala Sungai Baru,78200,Kuala Sungai Baru,Alor Gajah,Melaka,06-3876333,06-2876233,,,,2.35955,102.04368,0,0,NEW
228,21-0401002,KLINIK KESIHATAN LUBOK CHINA,Pekan Lubok China,78100,Lubok China,Alor Gajah,Melaka,06-6966475,,,,,2.46534,102.0681,0,0,NEW
229,21-0401002,KLINIK KESIHATAN MASJID TANAH,"Batu 18 1/2, Paya Rumput",78300,Masjid Tanah,Alor Gajah,Melaka,06-3842533,06-3842985,,,,2.3562,102.1006,0,0,NEW
230,21-0402003,KLINIK KESIHATAN SIMPANG BEKOH,"Kampung Simpang Bekoh, Jalan Besar",77100,Asahan,Jasin,Melaka,06-5236033,,,,,2.35861,102.51171,0,0,NEW
231,21-0402006,KLINIK KESIHATAN FELDA BUKIT SENGGEH,"Felda Bukit Senggeh, Asahan",77100,Jasin,Jasin,Melaka,06-5228305,,,,,2.38044,102.392938,0,0,NEW
232,21-0402001,KLINIK KESIHATAN JASIN,Pejabat Kesihatan Jasin,77000,Jasin,Jasin,Melaka,06-5294636,06-5292812,,,,2.30674,102.43013,0,0,NEW
233,21-0402001,KLINIK KESIHATAN KEMENDOR,Jalan Bunga Kertas,77000,Jasin,Jasin,Melaka,06-5293330,,,,,2.35116,102.40417,0,0,NEW
234,21-0402007,KLINIK KESIHATAN NYALAS,Kampung Nyalas,77100,Jasin,Jasin,Melaka,06-5228306,,,,,2.437446,102.468998,0,0,NEW
235,21-0402002,KLINIK KESIHATAN MERLIMAU,"Kampung Merlimau, Jalan Besar Merlimau",77300,Merlimau,Jasin,Melaka,06-2631533,06-2634925,,,,2.15366,102.42805,0,0,NEW
236,21-0402003,KLINIK KESIHATAN UMBAI,Jalan Muar,77300,Merlimau,Jasin,Melaka,06-2615610,,,,,2.16005,102.342941,0,0,NEW
237,21-0402002,KLINIK KESIHATAN SELANDAR,Jalan Macap,77500,Selandar,Jasin,Melaka,06-5251495,06-5251150,,,,2.38798,102.37254,0,0,NEW
238,21-0402003,KLINIK KESIHATAN SUNGAI RAMBAI,"KM 32, Sungai Rambai",77400,Sungai Rambai,Jasin,Melaka,06-2659526,06-2659526/ 06-52511,,,,2.12459,102.49279,0,0,NEW
239,21-0403001,KLINIK KESIHATAN AYER MOLEK,Jalan Air Molek,75460,Ayer Molek,Melaka Tengah,Melaka,06-2680333,,,,,2.20416,102.31568,0,0,NEW
240,21-0403001,KLINIK KESIHATAN BUKIT RAMBAI,"Jalan Bukit Rambai, Bukit Rambai",75250,Bukit Rambai,Melaka Tengah,Melaka,06-3512464,,,,,2.254529,102.179914,0,0,NEW
241,21-0403001,KLINIK KESIHATAN CHENG,Jalan Cheng,75250,Cheng,Melaka Tengah,Melaka,06-3123333,06-3121924,,,,2.274482,102.215104,0,0,NEW
242,21-0403002,KLINIK KESIHATAN KLEBANG BESAR,Jalan Klebang Besar,75200,Klebang Besar,Melaka Tengah,Melaka,06-3154144,,,,,2.21827,102.20053,0,0,NEW
243,21-0403001,KLINIK KESIHATAN JALAN GEREJA,Jalan Gereja,75500,Melaka,Melaka Tengah,Melaka,06-2824452,,,,,2.19449,102.25008,0,0,NEW
244,21-0403001,KLINIK KESIHATAN AYER KEROH,Jalan Ayer Keroh Lama,75350,Melaka Tengah,Melaka Tengah,Melaka,06-2312344,06-2324133,,,,2.266558,102.284026,0,0,NEW
245,21-0403002,KLINIK KESIHATAN PERINGGIT,Jalan Peringgit,75400,Melaka Tengah,Melaka Tengah,Melaka,06-2882344,06-2882340,,,,2.222318,102.254434,0,0,NEW
246,21-0403003,KLINIK KESIHATAN TENGKERA,"Jalan Dato Wira Poh Ah Tiam, Lorong Pandan, Tengkera",75200,Melaka Tengah,Melaka Tengah,Melaka,06-3360176,06-2821112,,,,2.201313,102.238144,0,0,NEW
247,21-0403003,KLINIK KESIHATAN SUNGAI UDANG,Batu 11 1/2,76300,Sungai Udang,Melaka Tengah,Melaka,06-3531333,,,,,2.280279,102.131551,0,0,NEW
248,21-0403003,KLINIK KESIHATAN TANJUNG KLING,Batu 7 Pekan Tanjung Kling,76400,Tanjung Kling,Melaka Tengah,Melaka,06-3511333,,,,,2.223334,102.16333,0,0,NEW
249,21-0403003,KLINIK KESIHATAN UJONG PASIR,Jalan Ujong Pasir,75000,Ujong Pasir,Melaka Tengah,Melaka,06-2867333,06-2812843,,,,2.18729,102.27115,0,0,NEW
250,21-0501008,KLINIK KESIHATAN PASOH 1,"Klinik Kesihatan Pasoh 1, Simpang Pertang",72300,Jelebu,Jelebu,N. Sembilan,06-4951272,,,,,3.024181,102.26604,0,0,NEW
251,21-0501005,KLINIK KESIHATAN TITI,Titi,71650,Jelebu,Jelebu,N. Sembilan,06-6111398,06-6137614,,,,3.00244,102.07925,0,0,NEW
252,21-0501002,KLINIK KESIHATAN JELEBU,Klinik Kesihatan Jelebu,71600,Kuala Klawang,Jelebu,N. Sembilan,06-6139497/ 9300/ 94,06-6137944,,,,2.95511,102.05986,0,0,NEW
253,21-0501004,KLINIK KESIHATAN PERTANG,Simpang Pertang,72300,Pertang,Jelebu,N. Sembilan,06-4941287,06-4941455,,,,2.95574,102.2241,0,0,NEW
254,21-0501005,KLINIK KESIHATAN SIMPANG DURIAN,Simpang Durian,72400,Simpang Durian,Jelebu,N. Sembilan,06-4914522,06-4914340,,,,3.10128,102.22099,0,0,NEW
255,21-0502002,KLINIK KESIHATAN BAHAU,Klinik Kesihatan Bahau,72100,Bahau,Jempol,N. Sembilan,06-4541234,06-4547107,,,,2.803579,102.378073,0,0,NEW
256,21-0502002,KLINIK KESIHATAN BANDAR SERI JEMPOL,Klinik Kesihatan Bandar Seri Jempol,72120,Bandar Seri Jempol,Jempol,N. Sembilan,06-4581667,06-4585140,,,,2.8979,102.39458,0,0,NEW
257,21-0502003,KLINIK KESIHATAN LUI MUDA,Bandar Seri Jempol,72120,Bandar Seri Jempol,Jempol,N. Sembilan,06-4691003,06-4585140,,,,3.02601,102.36924,0,0,NEW
258,21-0502005,KLINIK KESIHATAN SERTING HILIR,Bandar Seri Jempol,72120,Bandar Seri Jempol,Jempol,N. Sembilan,06-4683829,06-4585140,,,,2.9455,102.49362,0,0,NEW
259,21-0502003,"KLINIK KESIHATAN PALONG 4,5,6","Klinik Kesihatan Palong 4,5,6",73430,Gemas,Jempol,N. Sembilan,06-4666433,06-4667299,,,,2.7418,102.64713,0,0,NEW
260,21-0502003,KLINIK KESIHATAN PALONG 7 & 8 (FELDA),Klinik Kesihatan Palong 7 & 8,73430,Gemas,Jempol,N. Sembilan,06-4645549,06-4585140,,,,2.82201,102.6673,0,0,NEW
261,21-0502004,"KLINIK KESIHATAN PALONG 9, 10 & 11","JKR 861, Klinik Kesihatan Palong 9,10,11",73430,Gemas,Jempol,N. Sembilan,06-4668419,06-4585140,,,,2.78438,102.58105,0,0,NEW
262,21-0503003,KLINIK KESIHATAN JUASSEH,Klinik Kesihatan Juasseh,72500,Batu Kikir,Kuala Pilah,N. Sembilan,06-4981581,06-4818062,,,,2.79334,102.30291,0,0,NEW
263,21-0503003,KLINIK KESIHATAN PADANG LEBAR,Klinik Kesihatan Padang Lebar,72200,Batu Kikir,Kuala Pilah,N. Sembilan,06-4982667,06-4815062,,,,2.85919,102.2707,0,0,NEW
264,21-0503002,KLINIK KESIHATAN JOHOL,Klinik Kesihatan Johol,73100,Johol,Kuala Pilah,N. Sembilan,06-4367239,06-4818062,,,,2.6087,102.2689,0,0,NEW
265,21-0503003,KLINIK KESIHATAN KUALA PILAH,Klinik Kesihatan Kuala Pilah,72000,Kuala Pilah,Kuala Pilah,N. Sembilan,06-4842844,06-4842846,,,,2.73718,102.24894,0,0,NEW
266,21-0503009,KLINIK KESIHATAN SENALING,Klinik Kesihatan Senaling,72000,Kuala Pilah,Kuala Pilah,N. Sembilan,06-4814479,,,,,2.70577,102.25318,0,0,NEW
267,21-0503002,KLINIK KESIHATAN GUNUNG PASIR,Klinik Kesihatan Gunung Pasir,71550,Sri Menanti,Kuala Pilah,N. Sembilan,06-4979245,06-4818062,,,,2.66811,102.14562,0,0,NEW
268,21-0503005,KLINIK KESIHATAN SRI MENANTI,Sri Menanti,71550,Sri Menanti,Kuala Pilah,N. Sembilan,06-4979581,06-4818062,,,,2.698640,102.161000,0,0,NEW
269,21-0503005,KLINIK KESIHATAN TERACHI,Terachi,71550,Tanjong Ipoh,Kuala Pilah,N. Sembilan,06-4887202,06-4818062,,,,2.74171,102.13459,0,0,NEW
270,21-0504013,KLINIK KESIHATAN LUKUT,"KM 10, Jalan Seremban",71010,Lukut,Port Dickson,N. Sembilan,06-6511951,,,,,2.57617,101.8376,0,0,NEW
271,21-0504002,KLINIK KESIHATAN BUKIT PELANDUK,"Pejabat Kesihatan, KM 2, Jalan Seremban",71960,Port Dickson,Port Dickson,N. Sembilan,06-6581964,06-6473179,,,,2.64317,101.74342,0,0,NEW
272,21-0504003,KLINIK KESIHATAN LINGGI,"KM 2, Jalan Seremban",71150,Port Dickson,Port Dickson,N. Sembilan,06-6970213,06-6473179,,,,2.4827,102.01737,0,0,NEW
273,21-0504004,KLINIK KESIHATAN PASIR PANJANG,"Pejabat Kesihatan, KM 2, Jalan Seremban",71250,Port Dickson,Port Dickson,N. Sembilan,06-6619346,06-6473179,,,,2.42935,101.93712,0,0,NEW
274,21-0504004,KLINIK KESIHATAN PORT DICKSON,"KM 1, Jalan Seremban",71000,Port Dickson,Port Dickson,N. Sembilan,06-6473333,06-6473179,,,,2.52836,101.79181,0,0,NEW
275,21-0505002,KLINIK KESIHATAN ASTANA RAJA,"JKR 401, Lot 1428 & 1429, Mukim Legong Hilir",71350,Kota,Rembau,N. Sembilan,06-4382401,,,,,2.50684,102.11858,0,0,NEW
276,21-0505016,KLINIK KESIHATAN KOTA,"JKR 108, Lot 2157, Mukim Pekan Kota",71350,Rembau,Rembau,N. Sembilan,06-4382251,,,,,2.52177,102.157145,0,0,NEW
277,21-0505004,KLINIK KESIHATAN PEDAS,"JKR 437, Lot 4056, Pekan Pedas",71400,Rembau,Rembau,N. Sembilan,06-6851306,06-6853268,,,,2.62917,102.06224,0,0,NEW
278,21-0505004,KLINIK KESIHATAN REMBAU,"JKR 493, Lot 93, Jalan Batu Hampar, Mukim Bandar Rembau",71300,Rembau,Rembau,N. Sembilan,06-6852010,06-6855872,,,,2.58576,102.09344,0,0,NEW
279,21-0506003,KLINIK KESIHATAN LENGGENG,Lenggeng,71750,Lenggeng,Seremban,N. Sembilan,03-87667499,03-87660443,,,,2.86717,101.93675,0,0,NEW
280,21-0506003,KLINIK KESIHATAN MANTIN,Jalan Besar Mantin,71700,Mantin,Seremban,N. Sembilan,06-7581242,06-7585480,,,,2.82488,101.89315,0,0,NEW
281,21-0506004,KLINIK KESIHATAN KLIA,Jijan,71800,Nilai,Seremban,N. Sembilan,06-7913352,06-7915216,,,,2.76639,101.7649,0,0,NEW
282,21-0506003,KLINIK KESIHATAN NILAI,Nilai Square,71800,Nilai,Seremban,N. Sembilan,06-7991282,06-7915216,,,,2.80261,101.79829,0,0,NEW
283,21-0506004,KLINIK KESIHATAN RANTAU,Jalan Besar Rantau,71200,Rantau,Seremban,N. Sembilan,06-6941274,06-6943814,,,,2.60058,101.96199,0,0,NEW
284,21-0506004,KLINIK KESIHATAN SENDAYAN ,Felda Sendayan,71950,Sendayan,Seremban,N. Sembilan,06-7922073,06-7922758,,,,2.67911,101.84599,0,0,NEW
285,21-0506001,KLINIK KESIHATAN AMPANGAN,"KM 4, Jalan Seremban-Kuala Pilah",70400,Seremban,Seremban,N. Sembilan,06-6788986,06-6793120,,,,2.72367,101.98746,0,0,NEW
286,21-0506015,KLINIK KESIHATAN DESA RHU,Desa Rhu,70400,Seremban,Seremban,N. Sembilan,06-7645561,,,,,2.745346,101.961609,0,0,NEW
287,21-0506017,KLINIK KESIHATAN SENAWANG,Persiaran Senawang 2,70450,Seremban,Seremban,N. Sembilan,06-6766000,06-6751541,,,,2.69191,101.98838,0,0,NEW
288,21-0506004,KLINIK KESIHATAN SEREMBAN,Jalan Rasah,70300,Seremban,Seremban,N. Sembilan,06-7679667,06-7679317,,,,2.48411,102.23521,0,0,NEW
289,21-0506018,KLINIK KESIHATAN SEREMBAN 2,Jalan S2 A2,70300,Seremban 2,Seremban,N. Sembilan,06-6033700,,,,,2.706119,101.907688,0,0,NEW
290,21-0507002,KLINIK KESIHATAN GEMAS,Gemas,73400,Gemas,Tampin,N. Sembilan,07-9482352,07-9483568,,,,2.58425,102.60462,0,0,NEW
291,21-0507002,KLINIK KESIHATAN JELAI,Jelai,73480,Gemas,Tampin,N. Sembilan,06-4347488,06-4347488,,,,2.64586,102.4889,0,0,NEW
292,21-0507001,KLINIK KESIHATAN AIR KUNING,Air Kuning,73200,Gemenceh,Tampin,N. Sembilan,06-4478730,06-4478729,,,,2.51668,102.48401,0,0,NEW
293,21-0507017,KLINIK KESIHATAN BUKIT ROKAN UTARA,Bukit Rokan Utara,73200,Gemencheh,Tampin,N. Sembilan,06-4512600,,,,,2.663542,102.415984,0,0,NEW
294,21-0507002,KLINIK KESIHATAN GEMENCEH,Gemenchih,73200,Gemencheh,Tampin,N. Sembilan,06-4318304,06-4318241,,,,2.5328,102.3997,0,0,NEW
295,21-0507005,KLINIK KESIHATAN TAMPIN (JPL),Tampin,73009,Tampin,Tampin,N. Sembilan,06-4431806,06-4412329,,,,2.4845,102.23433,0,0,NEW
296,21-0601033,KLINIK KESIHATAN BENTONG,Batu Satu Jalan Tras,28700,Bentong,Bentong,Pahang,09-2220134,,,,,3.53981,101.90216,0,0,NEW
297,21-0601005,KLINIK KESIHATAN LURAH BILUT (FELDA),Lurah Bilut,28800,Bentong,Bentong,Pahang,09-2377333,,,,,3.66061,101.89109,0,0,NEW
298,21-0601007,KLINIK KESIHATAN SIMPANG PELANGAI,Simpang Pelangai,28740,Bentong,Bentong,Pahang,09-2480755,09-2450755,,,,3.177132,102.192914,0,0,NEW
299,21-0601005,KLINIK KESIHATAN KARAK,Jalan Besar,28600,Karak,Bentong,Pahang,09-2311245,09-2311245,,,,3.41801,102.0305,0,0,NEW
300,21-0601006,KLINIK KESIHATAN MEMPAGA,Felda Mempaga,28600,Karak,Bentong,Pahang,09-2377954,09-2377954,,,,3.536348,101.960443,0,0,NEW
301,21-0601031,KLINIK KESIHATAN TELEMONG,Telemong,28620,Karak,Bentong,Pahang,09-2399972,,,,,3.357817,102.064753,0,0,NEW
302,21-0601011,KLINIK KESIHATAN CHEMOMOI,Felda Chemomoi,28310,Triang,Bentong,Pahang,09-2450926,,,,,3.255115,102.243764,0,0,NEW
303,21-0602035,KLINIK KESIHATAN PADANG LUAS,Padang Luas,28200,Bera,Bera,Pahang,09-2409715,,,,,3.2956,102.46167,0,0,NEW
304,21-0602035,KLINIK KESIHATAN PURUN,Purun,28200,Bera,Bera,Pahang,09-2481585,09-2482905,,,,3.374969,102.631531,0,0,NEW
305,21-0602002,KLINIK KESIHATAN BANDAR BERA 32,Bandar Bera 32,28300,Triang,Bera,Pahang,09-2461988,09-2461988,,,,3.263953,102.606729,0,0,NEW
306,21-0602003,KLINIK KESIHATAN BUKIT MENDI,Bukit Mendi,28320,Triang,Bera,Pahang,09-2450161,09-2450161,,,,3.20475,102.30604,0,0,NEW
307,21-0602005,KLINIK KESIHATAN KEMAYAN,Kemayan,28320,Triang,Bera,Pahang,09-2409715,,,,,3.13866,102.37524,0,0,NEW
308,21-0602031,KLINIK KESIHATAN TEMBANGAU,Tembangau,28380,Triang,Bera,Pahang,06-4685730,06-4685730,,,,3.107719,102.534376,0,0,NEW
309,21-0602008,KLINIK KESIHATAN TRIANG,Triang,28300,Triang,Bera,Pahang,09-2555333,09-2554763,,,,3.245324,102.423391,0,0,NEW
310,21-0603018,"KLINIK KESIHATAN KAMPUNG RAJA",Kampung Raja,39010,Cameron Highlands,Cameron Highlands,Pahang,05-4982372,,,,,4.567121, 101.408000,0,0,NEW
311,21-0603007,KLINIK KESIHATAN TANAH RATA,Tanah Rata,39000,Tanah Rata,Cameron Highlands,Pahang,05-4911257,05-4914355,,,,4.47126,101.37918,0,0,NEW
312,21-0604004,KLINIK KESIHATAN KAMPUNG BANTAL,Kampung Bantal,27020,Hulu Tembeling,Jerantut,Pahang,09-2661905,,,,,4.501045,102.64668,0,0,NEW
313,21-0604005,KLINIK KESIHATAN LEPAR UTARA 4,Lepar Utara 4,26400,Jengka,Jerantut,Pahang,09-4741523,,,,,3.905966,102.795799,0,0,NEW
314,21-0604004,KLINIK KESIHATAN DAMAK,Damak,27300,Jerantut,Jerantut,Pahang,09-2681488,,,,,3.949779,102.212344,0,0,NEW
315,21-0604004,KLINIK KESIHATAN JENGKA 8,Felda Jengka 8,26400,Jerantut,Jerantut,Pahang,09-2081555,,,,,3.85485,102.49193,0,0,NEW
316,21-0604005,KLINIK KESIHATAN KUALA TAHAN,Kuala Tahan,27020,Jerantut,Jerantut,Pahang,09-2667468,,,,,4.382527,102.402105,0,0,NEW
317,21-0604005,KLINIK KESIHATAN KUALA TEMBELING,Kuala Tembeling,27020,Jerantut,Jerantut,Pahang,09-3086033,,,,,4.0664,102.31799,0,0,NEW
318,21-0604025,KLINIK KESIHATAN PADANG PIOL,Padang Piol,27040,Jerantut,Jerantut,Pahang,09-2668448,,,,,4.038843,102.380858,0,0,NEW
319,21-0604007,KLINIK KESIHATAN SUNGAI TEKAM UTARA,Kampung Sungai Tekam Utara,27060,Jerantut,Jerantut,Pahang,09-4811526,,,,,3.890387,102.596993,0,0,NEW
320,21-0604029,"KLINIK KESIHATAN SUNGAI LEKOK",Kampung Sungai Lekok,27000,Lekok,Jerantut,Pahang,09-2667608,,,,,3.901111, 102.330999,0,0,NEW
321,21-0604039,"KLINIK KESIHATAN INDERA MAHKOTA",Jln A IM 4,25582,Indera Mahkota,Kuantan,Pahang,09-5736572,,,,,3.823311, 103.290999,0,0,NEW
322,21-0605002,KLINIK KESIHATAN BALOK,Balok,26100,Kuantan,Kuantan,Pahang,09-5834533,,,,,3.932889,103.372207,0,0,NEW
323,21-0605002,KLINIK KESIHATAN BANDAR KUANTAN,Jalan Lim Hoe Lek,25200,Kuantan,Kuantan,Pahang,09-5132055,,,,,3.821784,103.324946,0,0,NEW
324,21-0605003,KLINIK KESIHATAN BESERAH,Berserah,26100,Kuantan,Kuantan,Pahang,09-5445633,,,,,3.85006,103.362594,0,0,NEW
325,21-0605003,KLINIK KESIHATAN BUKIT GOH (FELDA),Bukit Goh,26050,Kuantan,Kuantan,Pahang,09-5478355,,,,,3.880825,103.263502,0,0,NEW
326,21-0605004,KLINIK KESIHATAN GAMBANG,Gambang,26300,Kuantan,Kuantan,Pahang,09-54846111,,,,,3.70778,103.10862,0,0,NEW
327,21-0605004,KLINIK KESIHATAN JAYA GADING,Jaya Gading,26070,Kuantan,Kuantan,Pahang,09-5384252,,,,,3.75325,103.20386,0,0,NEW
328,21-0605037,KLINIK KESIHATAN KURNIA,"Batu 3, Jalan Gambang",25150,Kuantan,Kuantan,Pahang,09-5361333,09-5361566,,,,3.779994,103.283223,0,0,NEW
329,21-0605037,KLINIK KESIHATAN PAYA BESAR,"Jalan Pintasan Kuantan-Gambang, Paya Besar",25100,Kuantan,Kuantan,Pahang,09-5395436,,,,,3.777211,103.27567,0,0,NEW
330,21-0605026,KLINIK KESIHATAN PERMATANG BADAK,Permatang Badak,25150,Kuantan,Kuantan,Pahang,09-5364626,,,,,3.788912,103.268922,0,0,NEW
331,21-0605007,KLINIK KESIHATAN SUNGAI LEMBING,Kampung Sungai Lembing,26070,Kuantan,Kuantan,Pahang,09-5411598,09-5412267,,,,3.92532,103.07251,0,0,NEW
332,21-0606003,KLINIK KESIHATAN BENTA,Benta,27310,Benta,Lipis,Pahang,09-3239211,,,,,4.01321,101.96057,0,0,NEW
333,21-0606015,KLINIK KESIHATAN JERKOH,Jerkoh,27300,Benta,Lipis,Pahang,09-3239440,,,,,4.040373,101.954873,0,0,NEW
334,21-0606006,KLINIK KESIHATAN MELA,Mela,27200,Kuala Lipis,Lipis,Pahang,09-3129424,09-3292433,,,,4.07371,102.26917,0,0,NEW
335,21-0606006,KLINIK KESIHATAN MERAPOH,Merapoh,27210,Kuala Lipis,Lipis,Pahang,09-9122377,,,,,4.690787,102.00434,0,0,NEW
336,21-0606026,KLINIK KESIHATAN POS BETAU,Kampung Pos Betau,27200,Kuala Lipis,Lipis,Pahang,012-9869205,,,,,4.285551,101.805265,0,0,NEW
337,21-0606003,KLINIK KESIHATAN BUKIT BETONG,Bukit Betong,27200,Lipis,Lipis,Pahang,09-3291212,,,,,4.256537,101.920825,0,0,NEW
338,21-0606006,KLINIK KESIHATAN PADANG TENGKU,Padang Tengku,27100,Lipis,Lipis,Pahang,09-3291533,,,,,4.234362,101.988972,0,0,NEW
339,21-0606007,KLINIK KESIHATAN SUNGAI KOYAN,Kampung Sungai Koyan,27200,Lipis,Lipis,Pahang,09-3401533,,,,,4.21757,101.79781,0,0,NEW
340,21-0607004,KLINIK KESIHATAN JENGKA 2,Felda Jengka,26400,Bandar Jengka,Maran,Pahang,09-4674320,09-4674146,,,,3.715155,102.612708,0,0,NEW
341,21-0607004,KLINIK KESIHATAN JENGKA 22,Felda Jengka 22,26400,Bandar Jengka,Maran,Pahang,09-4864423,09-4863837,,,,3.71853,102.4756,0,0,NEW
342,21-0607015,"KLINIK KESIHATAN JENGKA 7",Felda Jengka 7,26410,Bandar Jengka,Maran,Pahang,09-4671566,,,,,3.616461, 102.614999,0,0,NEW
343,21-0607002,KLINIK KESIHATAN BANDAR JENGKA,Bandar Jengka,26400,Maran,Maran,Pahang,09-4677198,09-4863837,,,,3.76578,102.54261,0,0,NEW
344,21-0607003,KLINIK KESIHATAN CHENOR,Chenor,28100,Maran,Maran,Pahang,09-2995391,09-2995391,,,,3.47943,102.5922,0,0,NEW
345,21-0607005,KLINIK KESIHATAN MARAN,Maran,26500,Maran,Maran,Pahang,09-4771333,09-4771504,,,,3.58474,102.77425,0,0,NEW
346,21-0607006,KLINIK KESIHATAN PEKAN AWAH,Pekan Awah,28000,Maran,Maran,Pahang,09-2986333,09-2987216,,,,3.493259,102.531304,0,0,NEW
347,21-0607006,KLINIK KESIHATAN PEKAN TAJAU,Pekan Tajau,28000,Maran,Maran,Pahang,09-4774782,09-4774403,,,,3.56058,102.69084,0,0,NEW
348,21-0608036,KLINIK KESIHATAN BANDAR PEKAN,Bandar Pekan,26600,Pekan,Pekan,Pahang,09-4227291,09-4227339,,,,3.489294,103.393428,0,0,NEW
349,21-0608004,KLINIK KESIHATAN CHINI,Felda Chini 1,26690,Pekan,Pekan,Pahang,09-4566333,,,,,3.37456,102.94578,0,0,NEW
350,21-0608006,KLINIK KESIHATAN NENASI,Kampong Nenasi,26680,Pekan,Pekan,Pahang,09-4181233,,,,,3.140533,103.441185,0,0,NEW
351,21-0608006,KLINIK KESIHATAN PADANG RUMBIA,Kampung Padang Rumbia,26650,Pekan,Pekan,Pahang,09-4281205,,,,,3.530563,103.202001,0,0,NEW
352,21-0608033,KLINIK KESIHATAN PEKAN,Pekan,26600,Pekan,Pekan,Pahang,09-4221044,,,,,3.489294,103.393428,0,0,NEW
353,21-0608006,KLINIK KESIHATAN PERAMU JAYA,Peramu Jaya,26600,Pekan,Pekan,Pahang,09-4269609,,,,,3.54629,103.383,0,0,NEW
354,21-0608027,KLINIK KESIHATAN RPS RUNCHANG,RPS Runchang,26690,Pekan,Pekan,Pahang,09-4530791,,,,,3.354456,103.032088,0,0,NEW
355,21-0609036,KLINIK KESIHATAN BUKIT FRASER,Bukit Fraser,49000,Bukit Fraser,Raub,Pahang,09-3622333,,,,,3.711193,101.753769,0,0,NEW
356,21-0609003,KLINIK KESIHATAN CHEROH,Cheroh,27600,Raub,Raub,Pahang,09-3697228,,,,,3.911918,101.811647,0,0,NEW
357,21-0609004,KLINIK KESIHATAN DONG,Ulu Dong,27400,Raub,Raub,Pahang,09-3658355,,,,,3.90105,101.89547,0,0,NEW
358,21-0609004,KLINIK KESIHATAN JERUAS,Jeruas,27660,Raub,Raub,Pahang,09-3657333,09-3657333,,,,3.981466,101.904628,0,0,NEW
359,21-0609005,KLINIK KESIHATAN LEMBAH KLAU,Lembah Klau,27600,Raub,Raub,Pahang,09-3688333,,,,,3.689875,102.004253,0,0,NEW
360,21-0609008,KLINIK KESIHATAN TERSANG,Tersang,27610,Raub,Raub,Pahang,09-3403086,,,,,3.98459,101.782565,0,0,NEW
361,21-0609008,KLINIK KESIHATAN ULU GALI,Kampung Ulu Gali,27600,Raub,Raub,Pahang,09-3686355,,,,,3.823146,101.933624,0,0,NEW
362,21-0610003,KLINIK KESIHATAN BANDAR TUN ABDUL RAZAK,Bandar Tun Razak,26900,Bandar Tun Razak,Rompin,Pahang,09-4457297,09-4457397,,,,2.9041,102.89988,0,0,NEW
363,21-0610007,KLINIK KESIHATAN ROMPIN,Rompin,26800,Kuala Rompin,Rompin,Pahang,09-4145333,09-4141836,,,,2.80147,103.48048,0,0,NEW
364,21-0610007,KLINIK KESIHATAN TANJUNG GEMOK,Tanjung Gemok,26800,Kuala Rompin,Rompin,Pahang,09-4132510,09-4132510,,,,2.67073,103.61386,0,0,NEW
365,21-0610003,KLINIK KESIHATAN CHANIS,Chanis,26700,Muadzam Shah,Rompin,Pahang,09-4471106,09-4471106,,,,2.857706,102.984424,0,0,NEW
366,21-0610006,KLINIK KESIHATAN PERANTAU DAMAI,Perantau Damai,26700,Muadzam Shah,Rompin,Pahang,09-4431333,09-4431333,,,,2.963784,102.981827,0,0,NEW
367,21-0610003,KLINIK KESIHATAN BUKIT IBAM,Bukit Ibam,26700,Rompin,Rompin,Pahang,09-4585231,09-4585231,,,,3.164705,102.976785,0,0,NEW
368,21-0610023,"KLINIK KESIHATAN LEBAN CHONDONG","Jalan Rompin, Pekan Leban Chondong",26800,Rompin,Rompin,Pahang,09-4149237,,,,,2.889781, 103.427999,0,0,NEW
369,21-0610007,KLINIK KESIHATAN PERWIRA JAYA,"Wakil Pos, Bandar 19",85070,Segamat,Rompin,Pahang,09-4371176,09-4371176,,,,2.687101,102.949297,0,0,NEW
370,21-0610007,KLINIK KESIHATAN TEKEK,"Tekek, Pulau Tioman",86800,Tioman,Rompin,Pahang,09-4191880,09-4191109,,,,2.81716,104.15831,0,0,NEW
371,21-0611005,KLINIK KESIHATAN LANCHANG,Lanchang,28500,Lanchang,Temerloh,Pahang,09-2803233,09-2803233,,,,3.49942,102.18489,0,0,NEW
372,21-0611002,KLINIK KESIHATAN BANDAR MENTAKAB,Bandar Mentakab,28400,Mentakab,Temerloh,Pahang,09-2771845,09-2771845,,,,3.48071,102.34205,0,0,NEW
373,21-0611020,KLINIK KESIHATAN KERDAU,Kerdau,28020,Temerloh,Temerloh,Pahang,09-2847003,,,,,3.579173,102.382642,0,0,NEW
374,21-0611005,KLINIK KESIHATAN KUALA KRAU,Kuala Krau,28050,Temerloh,Temerloh,Pahang,09-2861242,09-2861242,,,,3.70952,102.36537,0,0,NEW
375,21-0611007,KLINIK KESIHATAN SANGGANG,Sanggang,28020,Temerloh,Temerloh,Pahang,09-2846333,09-2847982,,,,3.52681,102.42243,0,0,NEW
376,21-0611037,"KLINIK KESIHATAN TANJUNG LALANG (SIMPANG SONGSANG)",Simpang Songsang,28000,Temerloh,Temerloh,Pahang,09-2961142,09-2961109,,,,3.520296, 102.396701,0,0,NEW
377,21-0611008,KLINIK KESIHATAN TEMERLOH,Temerloh,28000,Temerloh,Temerloh,Pahang,09-2961275,09-2771333,,,,3.44604,102.423713,0,0,NEW
378,21-0801032,KLINIK KESIHATAN TAPAH ROAD,Pekan Tapah,35000,Batang Padang,Batang Padang,Perak,05-4180370,,,,,4.193621,101.263601,0,0,NEW
379,21-0801003,KLINIK KESIHATAN BIDOR,Jalan Besar Bidor,35500,Bidor,Batang Padang,Perak,05-4341480,05-4341480,,,,4.114722,101.284833,0,0,NEW
380,21-0801008,KLINIK KESIHATAN SLIM RIVER,Jalan Indah,35800,Slim River,Batang Padang,Perak,05-4527679/ 05-43231,05-4527041,,,,3.83743,101.40143,0,0,NEW
381,21-0801004,KLINIK KESIHATAN GUNUNG BESOUT,"Jalan Klinik, Gunung Besout",35600,Sungkai,Batang Padang,Perak,05-4311092,05-4311384,,,,3.84331,101.29489,0,0,NEW
382,21-0801009,KLINIK KESIHATAN SUNGKAI,Jalan Pekan Sungkai,35600,Sungkai,Batang Padang,Perak,05-4386355,05-4386466,,,,3.99848,101.30889,0,0,NEW
383,21-0801004,KLINIK KESIHATAN TROLAK (FELDA),"Jalan Besar Trolak Selatan, Felda Trolak Selatan",35600,Sungkai,Batang Padang,Perak,05-4323136,05-4321081,,,,3.89244,101.3763,0,0,NEW
384,21-0801009,KLINIK KESIHATAN TANJUNG MALIM,Pekan Tanjung Malim,35900,Tanjung Malim,Batang Padang,Perak,05-4596333,05-4597427,,,,3.68813,101.524392,0,0,NEW
385,21-0801009,KLINIK KESIHATAN TAPAH,Jalan Damai,35000,Tapah,Batang Padang,Perak,05-4010260,05-4018467,,,,4.18704,101.26554,0,0,NEW
386,21-0802003,KLINIK KESIHATAN BAGAN DATOH,Pekan Bagan Datoh,36100,Bagan Datoh,Hilir Perak,Perak,05-6466233,05-7231303,,,,3.97823,100.78651,0,0,NEW
387,21-0802021,KLINIK KESIHATAN SUNGAI TIANG,Sungai Tiang,36100,Bagan Datoh,Hilir Perak,Perak,04-7596412,,,,,3.90843,100.71738,0,0,NEW
388,21-0802004,KLINIK KESIHATAN CHENDERONG BALAI,Chenderong Balai,36600,Chenderong Balai,Hilir Perak,Perak,05-6511652,,,,,4.132556,101.102778,0,0,NEW
389,21-0802004,KLINIK KESIHATAN HUTAN MELINTANG,Jalan Hutan Melintang,36400,Hutan Melintang,Hilir Perak,Perak,05-6411475,,,,,3.876417,100.93425,0,0,NEW
390,21-0802006,KLINIK KESIHATAN LANGKAP,Langkap,36700,Langkap,Hilir Perak,Perak,05-6591473,,,,,4.079833,101.149667,0,0,NEW
391,21-0802008,KLINIK KESIHATAN SELEKOH,Jalan Bagan Datoh,36100,Selekoh,Hilir Perak,Perak,05-6489333,,,,,3.902028,100.78911,0,0,NEW
392,21-0802009,KLINIK KESIHATAN SUNGAI SUMUN,Kampung Sungai Sumun,36300,Sungai Sumun,Hilir Perak,Perak,05-6489355,,,,,3.890583,100.854306,0,0,NEW
393,21-0802036,KLINIK KESIHATAN TELOK INTAN,Jalan Bandar,36000,Telok Intan,Hilir Perak,Perak,05-6214020,,,,,4.028198,101.018123,0,0,NEW
394,21-0803007,KLINIK KESIHATAN PLANG,"Jalan Gerik-Pengkalan Hulu, Kampung Plang",33320,Gerik,Hulu Perak,Perak,05-7917635,05-7917795,,,,5.5666,101.107733,0,0,NEW
395,21-0803038,KLINIK KESIHATAN POS KEMAR,"Pejabat Kesihatan Hulu Perak, Aras 3 Wisma Persekutuan Persekutuan, Jln Intan",33300,Grik,Hulu Perak,Perak,05-7911335,05-7911426,,,,5.435927,101.130051,0,0,NEW
396,21-0803006,KLINIK KESIHATAN LAWIN,Jalan Lenggong-Gerik,33410,Lawin,Hulu Perak,Perak,05-7911907,05-7914670,,,,5.2936,101.05847,0,0,NEW
397,21-0803006,KLINIK KESIHATAN LENGGONG,Jalan Gerik,33400,Lenggong,Hulu Perak,Perak,05-7677355,05-7679461,,,,5.107533,100.968,0,0,NEW
398,21-0803007,KLINIK KESIHATAN PENGKALAN HULU,Jalan Pengkalan Hulu,33100,Pengkalan Hulu,Hulu Perak,Perak,04-4778355,04-4770885,,,,5.70623,100.996154,0,0,NEW
399,21-0811004,KLINIK KESIHATAN GOPENG,Jalan Dr.Raja Nazrin,31600,Gopeng,Kampar,Perak,05-3593355,05-3596985,,,,4.45373,101.16513,0,0,NEW
400,21-0811037,KLINIK KESIHATAN KOTA BHARU,Jalan Kota Bharu,31610,Gopeng,Kampar,Perak,05-3594355,05-3596701,,,,4.39884,101.07933,0,0,NEW
401,21-0811005,KLINIK KESIHATAN KAMPAR,Jalan Degong,31900,Kinta,Kampar,Perak,05-4667011,05-4666872,,,,4.298333,101.156944,0,0,NEW
402,21-0811006,KLINIK KESIHATAN MALIM NAWAR,Jalan Malim Nawar,31700,Malim Nawar,Kampar,Perak,05-4771818,05-4773241,,,,4.35765,101.12213,0,0,NEW
403,21-0804002,KLINIK KESIHATAN ALOR PONGSU,Jalan Stesen,34300,Alor Pongsu,Kerian,Perak,05-7215855,05-7212605,,,,5.049533,100.587297,0,0,NEW
404,21-0804003,KLINIK KESIHATAN BAGAN SERAI,Jalan Taiping,34300,Bagan Serai,Kerian,Perak,05-7215355,07-7231303,,,,5.008047,100.540692,0,0,NEW
405,21-0804009,KLINIK KESIHATAN TELUK MEDAN,"Jalan Taiping, Kampung Teluk Medan",34300,Bagan Serai,Kerian,Perak,05-7215655,05-7210126,,,,4.985617,100.582197,0,0,NEW
406,21-0804004,KLINIK KESIHATAN GUNUNG SEMANGGOL,"Jalan Kubu Gajah, Simpang Empat",34400,Gunung Semanggol,Kerian,Perak,05-8921304,05-8901333,,,,4.965594,100.652394,0,0,NEW
407,21-0804005,KLINIK KESIHATAN JALAN BARU,Jalan Tanah Kebun,34250,Kerian,Kerian,Perak,05-7163355,05-7174043,,,,5.07456,100.47813,0,0,NEW
408,21-0804005,KLINIK KESIHATAN KUALA GULA,Kuala Gula,34350,Kuala Gula,Kerian,Perak,05-8908657,,,,,4.951086,100.619814,0,0,NEW
409,21-0804005,KLINIK KESIHATAN KUALA KURAU,Jalan Kuala Kurau,34350,Kuala Kurau,Kerian,Perak,05-7277355,05-7277717,,,,5.025519,100.435694,0,0,NEW
410,21-0804021,KLINIK KESIHATAN SELINSING,"Kampung Selinsing, Simpang Ampat",34400,Semanggol,Kerian,Perak,05-8904542,,,,,4.925012,100.624255,0,0,NEW
411,21-0804005,KLINIK KESIHATAN KEDAI EMPAT,"Jalan Sungai Kota, Kedai Empat",34250,Tanjung Piandang,Kerian,Perak,05-7165155,05-7165155,,,,5.108931,100.438456,0,0,NEW
412,21-0804009,KLINIK KESIHATAN TANJUNG PIANDANG,Jalan Pantai Remis,34250,Tanjung Piandang,Kerian,Perak,05-7256355,05-7250402,,,,5.07191,100.38536,0,0,NEW
413,21-0805004,KLINIK KESIHATAN CHEMOR,"Jalan Tanah Hitam, Kampung Chemor",31200,Chemor,Kinta,Perak,05-2011355,05-2015255,,,,4.731944,101.134444,0,0,NEW
414,21-0805003,KLINIK KESIHATAN BIJIH TIMAH,Jalan Treacher,31350,Ipoh,Kinta,Perak,05-2548615,05-2420528,,,,4.593889,101.078056,0,0,NEW
415,21-0805038,KLINIK KESIHATAN BUNTUNG,"Lot 30943, Jalan Desa Rishah",30100,Ipoh,Kinta,Perak,05-2824421,05-2823333,,,,4.58529,101.05064,0,0,NEW
416,21-0805004,KLINIK KESIHATAN GREENTOWN,Jalan Raja Musa Aziz,30450,Ipoh,Kinta,Perak,05-2530801,05-2530740,,,,4.602778,101.086944,0,0,NEW
417,21-0805004,KLINIK KESIHATAN GUNUNG RAPAT,Jalan Gunung Rapat,31350,Ipoh,Kinta,Perak,05-3115813,05-3115811,,,,4.56289,101.11241,0,0,NEW
418,21-0805005,KLINIK KESIHATAN JELAPANG,"Jalan Jelapang, Pekan Jelapang",30020,Ipoh,Kinta,Perak,05-5268566,05-5284676,,,,4.614167,101.056667,0,0,NEW
419,21-0805005,KLINIK KESIHATAN KAMPUNG SIMEE,"Jalan Kompleks Sukan, Kampung Simee",31400,Ipoh,Kinta,Perak,05-5474202,05-5496385,,,,4.616667,101.115278,0,0,NEW
420,21-0805006,KLINIK KESIHATAN MANJOI,"Kampung Manjol, Jalan Masjid",30100,Ipoh,Kinta,Perak,05-5263220,05-5284672,,,,4.61808,101.07101,0,0,NEW
421,21-0805007,KLINIK KESIHATAN MENGLEMBU,"Jalan Menglembu Timur 10, Pekan Mengelembu",31450,Ipoh,Kinta,Perak,05-2815882,05-2814090,,,,4.56272,101.05053,0,0,NEW
422,21-0805007,KLINIK KESIHATAN PASIR PINJI,"Jalan Bunga Raya, Pasir Pinji",31650,Ipoh,Kinta,Perak,05-3214172,05-3214569,,,,4.5751,101.08512,0,0,NEW
423,21-0805009,KLINIK KESIHATAN TANJUNG RAMBUTAN,Jalan Tambun,31650,Tanjung Rambutan,Kinta,Perak,05-5331355,05-5335379,,,,4.66554,101.15743,0,0,NEW
424,21-0805009,KLINIK KESIHATAN TANJUNG TUALANG,Pekan Tanjung Tualang,31800,Tanjung Tualang,Kinta,Perak,05-3609355,05-3600324,,,,4.325278,101.055,0,0,NEW
425,21-0805009,KLINIK KESIHATAN TRONOH,Jalan Tronoh,31750,Tronoh,Kinta,Perak,05-3676355,05-3676243,,,,4.423056,100.993056,0,0,NEW
426,21-0806005,KLINIK KESIHATAN KARAI,"Jalan Besar, Kampung Karai",33600,Enggor,Kuala Kangsar,Perak,05-7576355,05-7576335,,,,4.832567,100.967117,0,0,NEW
427,21-0806006,KLINIK KESIHATAN MANONG,Jalan Rumah Awam II,33800,Kuala Kangsar,Kuala Kangsar,Perak,05-7430355,05-7430355,,,,4.591333,100.879683,0,0,NEW
428,21-0806008,KLINIK KESIHATAN SAUK,Jalan Besar Lenggong,33500,Kuala Kangsar,Kuala Kangsar,Perak,05-7511355,05-7511355,,,,4.9317,100.92571,0,0,NEW
429,21-0806017,KLINIK KESIHATAN BEKOR,Bekor,33800,Manong,Kuala Kangsar,Perak,05-74311575,,,,,4.577897,100.926631,0,0,NEW
430,21-0806007,KLINIK KESIHATAN PADANG RENGAS,Pekan Padang Rengas,33700,Padang Rengas,Kuala Kangsar,Perak,05-7584355,05-7585924,,,,4.7747,100.849983,0,0,NEW
431,21-0806008,KLINIK KESIHATAN SUNGAI SIPUT,"Jalan Ipoh, Pekan Sungai Siput",31100,Sungai Siput,Kuala Kangsar,Perak,05-5982355,,,,,4.815825,101.080558,0,0,NEW
432,21-0806006,KLINIK KESIHATAN LINTANG,Kampung Lintang,31110,Sungai Siput Utara,Kuala Kangsar,Perak,05-5912255,05-5912255,,,,4.935269,101.099898,0,0,NEW
433,21-0807003,KLINIK KESIHATAN BATU KURAU,Pekan Batu Kurau,34500,Batu Kurau,Larut Matang,Perak,05-8880333,05-8880333,,,,4.977,100.80143,0,0,NEW
434,21-0807003,KLINIK KESIHATAN CHANGKAT JERING,"Pekan Changkat Jering, Jalan Kuala Kangsar",34850,Changkat Jering,Larut Matang,Perak,05-8553013,05-8553013,,,,4.78641,100.72433,0,0,NEW
435,21-0807007,KLINIK KESIHATAN REDANG PANJANG,Jalan Batu Kurau,34510,Ijok,Larut Matang,Perak,05-8802264,05-8802264,,,,5.11525,100.784442,0,0,NEW
436,21-0807005,KLINIK KESIHATAN KAMUNTING,"Jalan Ekpo, Pekan Kemunting",34600,Kamunting,Larut Matang,Perak,05-8913751,05-8913751,,,,4.903262,100.723102,0,0,NEW
437,21-0807006,KLINIK KESIHATAN KUALA SEPETANG,Kampung Kuala Sepetang,34600,Kuala Sepetang,Larut Matang,Perak,05-8581355,05-8581355,,,,4.83836,100.6329,0,0,NEW
438,21-0807015,KLINIK KESIHATAN IJOK (FELDA),Felda Ijok,34120,Redang Panjang,Larut Matang,Perak,05-8803048,,,,,5.16557,100.76786,0,0,NEW
439,21-0807008,KLINIK KESIHATAN SELAMA,Pekan Selama,34100,Selama,Larut Matang,Perak,05-8394355,05-83944204,,,,5.21651,100.69474,0,0,NEW
440,21-0807008,KLINIK KESIHATAN SUNGAI BAYOR,Pekan Sungai Bayor,34110,Selama,Larut Matang,Perak,05-8394155,05-8394155,,,,5.259039,100.782123,0,0,NEW
441,21-0807007,KLINIK KESIHATAN POKOK ASSAM,"Jalan Menteri Besar, Pekan Pokok Assam",34000,Taiping,Larut Matang,Perak,05-8067177,05-8089301,,,,4.834167,100.741667,0,0,NEW
442,21-0807038,KLINIK KESIHATAN TAIPING,Jalan Tupai,34000,Taiping,Larut Matang,Perak,05-8041555,05-8011315,,,,4.8475,100.745556,0,0,NEW
443,21-0807008,KLINIK KESIHATAN SUNGAI KERANG,Jalan Pantai Remis,34800,Trong,Larut Matang,Perak,05-8544255,05-8544255,,,,4.59819,100.68144,0,0,NEW
444,21-0807009,KLINIK KESIHATAN TRONG,Trong,34800,Trong,Larut Matang,Perak,05-8577155,05-8577155,,,,4.70477,100.71845,0,0,NEW
445,21-0808003,KLINIK KESIHATAN AYER TAWAR,"Jalan Besar,  Pekan Ayer Tawar",32400,Ayer Tawar,Manjung,Perak,05-6723333,05-6723 333,,,,4.289038,100.748947,0,0,NEW
446,21-0808003,KLINIK KESIHATAN BRUAS,Jalan Besar,32700,Bruas,Manjung,Perak,05-6743333,05-6749333,,,,4.49729,100.78898,0,0,NEW
447,21-0808003,KLINIK KESIHATAN CHANGKAT KERUING,Kampung Changkat Kruing,32500,Changkat Kruing,Manjung,Perak,05-6751553,,,,,4.381654,100.69129,0,0,NEW
448,21-0808006,KLINIK KESIHATAN LEKIR,Batu 8,32020,Lekir,Manjung,Perak,05-6791415/ 1527,05-6791527,,,,4.13571,100.7306,0,0,NEW
449,21-0808007,KLINIK KESIHATAN PANTAI REMIS,"Jalan Besar, Pekan Pantai Remis",34900,Pantai Remis,Manjung,Perak,05-6771316,05-6771316,,,,4.44408,100.63073,0,0,NEW
450,21-0808026,KLINIK KESIHATAN PENGKALAN BARU,Kampung Pengkalan Baru,34900,Pantai Remis,Manjung,Perak,05-6774350,,,,,4.48093,100.63815,0,0,NEW
451,21-0808007,KLINIK KESIHATAN PULAU PANGKOR,"Jalan Pasir Bogak, Pekan Pulau Pangkor",32300,Pulau Pangkor,Manjung,Perak,05-6851234/ 4048/ 21,05-6852540,,,,4.21201,100.57144,0,0,NEW
452,21-0808008,KLINIK KESIHATAN SITIAWAN,"Jalan Dato' Ahmad Yunus, Pekan Sitiawan",32000,Sitiawan,Manjung,Perak,05-6914355,05-6918597,,,,4.22392,100.70281,0,0,NEW
453,21-0809027,KLINIK DESA FELCRA NASARUDIN,Bota,32600,Bota,Perak Tengah,Perak,05-3711603,,,,,4.32221,100.952508,0,0,NEW
454,21-0809003,KLINIK KESIHATAN BOTA KIRI,Jalan Bota Kiri,32600,Bota Kiri,Perak Tengah,Perak,05-3761355,05-3711890,,,,4.35685,100.873,0,0,NEW
455,21-0809004,KLINIK KESIHATAN CHANGKAT LADA,"Felcra Changkat Lada, Kampung Gajah",36800,Changkat Lada,Perak Tengah,Perak,05-6551355/ 05-65515,05-3711890,,,,4.144508,100.90083,0,0,NEW
456,21-0809010,KLINIK KESIHATAN AIR KUNING,"Jalan Tanjung Tualang, Air Kuning",36800,Kampung Gajah,Perak Tengah,Perak,05-4780897,05-3711890,,,,4.24629,101.031328,0,0,NEW
457,21-0809005,KLINIK KESIHATAN KAMPUNG GAJAH,Pekan  Kampung Gajah,36800,Kampung Gajah,Perak Tengah,Perak,05-6311185,05-3711890,,,,4.18274,100.94215,0,0,NEW
458,21-0809006,KLINIK KESIHATAN LAMBOR KIRI,Jalan Teluk Sena,32900,Lambor Kiri,Perak Tengah,Perak,05-3761855,05-3711890,,,,4.279409,100.880362,0,0,NEW
459,21-0809007,KLINIK KESIHATAN PARIT,Jalan Pejabat Pos,32800,Parit,Perak Tengah,Perak,05-3772689,05-3711890,,,,4.47648,100.90975,0,0,NEW
460,21-0809010,KLINIK KESIHATAN ULU DEDAP,"Jalan Seberang Perak, Kampung Ulu Dedap",36000,Teluk Intan,Perak Tengah,Perak,05-6551384,05-3711890,,,,4.090167,100.94685,0,0,NEW
461,21-0901004,KLINIK KESIHATAN ARAU,Arau,2600,Arau,Kangar,Perlis,04-9861218,04-9869080,,,,6.4327,100.27051,0,0,NEW
462,21-0901000,KLINIK KESIHATAN BESERI,Jalan Bukit Keteri,2400,Beseri,Kangar,Perlis,04-9381355,04-9381355,,,,6.51487,100.23052,0,0,NEW
463,21-0901004,KLINIK KESIHATAN KAKI BUKIT,Kaki Bukit,2200,Kali Bukit,Kangar,Perlis,04-9456237,04-9456994,,,,6.64256,100.2116,0,0,NEW
464,21-0901000,KLINIK KESIHATAN KANGAR,Jalan Kolam Air,1000,Kangar,Kangar,Perlis,04-9778333,04-9779019,,,,6.43956,100.19059,0,0,NEW
465,21-0901000,KLINIK KESIHATAN KUALA PERLIS,"Batu 7, Jalan Kuala Perlis",2000,Kuala Perlis,Kangar,Perlis,04-9854259,04-9853719,,,,6.397391,100.134362,0,0,NEW
466,21-0901004,KLINIK KESIHATAN KUALA SANGLANG,Kuala Sanglang,2800,Kuala Sanglang,Kangar,Perlis,04-7940216,04-7942999,,,,6.262644,100.195881,0,0,NEW
467,21-0901000,KLINIK KESIHATAN KAMPUNG GIAL,Kampung Gial,2500,Mata Air,Kangar,Perlis,04-9861177,04-9861177,,,,6.4655,100.27354,0,0,NEW
468,21-0901000,KLINIK KESIHATAN PADANG BESAR,"KM 37, Jalan Padang Besar",2500,Padang Besar,Kangar,Perlis,04-9490333,04-9493562,,,,6.65689,100.31586,0,0,NEW
469,21-0901000,KLINIK KESIHATAN SIMPANG EMPAT,Simpang Empat,2700,Simpang Empat,Kangar,Perlis,04-9807214,04-9805959,,,,6.33657,100.19147,0,0,NEW
470,21-0701001,KLINIK KESIHATAN BAYAN BARU,Jalan Tengah,11950,Bayan Lepas,Barat Daya,P. Pinang,04-6425102,04-6413189,,,,5.319757,100.279744,0,0,NEW
471,21-0701002,KLINIK KESIHATAN BAYAN LEPAS,"Lot 1157, Mulim 12",11900,Bayan Lepas,Barat Daya,P. Pinang,04-6435434,04-6433967,,,,5.29947,100.26205,0,0,NEW
472,21-0701004,KLINIK KESIHATAN TELUK BAHANG,"Lot 669, Mukim 2",11050,Teluk Bahang,Barat Daya,P. Pinang,04-8851951,04-8811333,,,,5.45561,100.21501,0,0,NEW
473,21-0702003,KLINIK KESIHATAN BANDAR TASIK MUTIARA,"Lot 1051, Mukim 15, Lorong Tasik Mutiara 19/SS2",14100,Bandar Tasik Mutiara,Seberang Perai Selatan,P. Pinang,04-5079855,04-5939086,,,,5.2814,100.49214,0,0,NEW
474,21-0702003,KLINIK KESIHATAN NIBONG TEBAL,"Lot 320, Mukim 17",14300,Nibong Tebal,Seberang Perai Selatan,P. Pinang,04-5593135,04-5939086,,,,5.166602,100.49279,0,0,NEW
475,21-0702003,KLINIK KESIHATAN SUNGAI ACHEH,"Lot 1376, Mukim 10, Sungai Acheh",14300,Nibong Tebal,Seberang Perai Selatan,P. Pinang,04-5981733,04-5939086,,,,5.150278,100.422563,0,0,NEW
476,21-0702002,KLINIK KESIHATAN BUKIT PANCHOR,"Lot 1866, Mukim 7, Jalan Bukit Panchor",14300,Nibong Tebal,Seberang Perai Selatan ,P. Pinang,04-5931679,04-5939086,,,,5.16748,100.49285,0,0,NEW
477,21-0703002,KLINIK KESIHATAN BERAPIT,"Lot 89, Mukim 17,  Berapit",14000,Bukit Mertajam,Seberang Perai Tengah,P. Pinang,04-5395400,04-5374595,,,,5.37946,100.47394,0,0,NEW
478,21-0703003,KLINIK KESIHATAN KUBANG SEMANG,"Lot 807, Mukim 5, Kubang Semang",14000,Bukit Mertajam,Seberang Perai Tengah,P. Pinang,04-5390654,04-5374595,,,,5.39746,100.46431,0,0,NEW
479,21-0703013,"KLINIK KESIHATAN MACHANG BUBOK","No FR 30, Lot 585 Mukim 16, Perkampungan Machang Bubok",14000,Bukit Mertajam,Seberang Perai Tengah,P. Pinang,04-5515985,,,,,5.330929, 100.503197,0,0,NEW
480,21-0703003,KLINIK KESIHATAN PRAI,"Lot 329, Mukim 1, Jalan Baru Perai",13600,Perai,Seberang Perai Tengah,P. Pinang,04-3901477,,,,,5.383767,100.388187,0,0,NEW
481,21-0703008,KLINIK KESIHATAN PERMATANG PAUH,"PWD 662, PT 67, Mukim 2, Jalan Sama Gagah",13500,Permatang Pauh,Seberang Perai Tengah,P. Pinang,04-3981380,04-5374595,,,,5.41792,100.41218,0,0,NEW
482,21-0703003,KLINIK KESIHATAN SEBERANG JAYA,"Lot 340, Mukim 1, Jalan Perpustakaan",13700,Seberang Jaya,Seberang Perai Tengah,P. Pinang,04-3900264/ 04-39018,04-3905424,,,,5.39351,100.3985,0,0,NEW
483,21-0703002,KLINIK KESIHATAN BUKIT MINYAK,"PT 35, Mukim 14, Jalan Bukit Minyak",14000,Bukit Mertajam,Seberang Perai Tengah ,P. Pinang,04-5071355,04-5374595,,,,5.326678,100.448307,0,0,NEW
484,21-0704003,KLINIK KESIHATAN MAK MANDIN,"Lot 2882, Seksyen 3, Jalan Mak Mandin",13400,Butterworth,Seberang Perai Utara,P. Pinang,04-3244685,04-5755533,,,,5.42132,100.38938,0,0,NEW
485,21-0704003,KLINIK KESIHATAN SUNGAI DUA,"Lot 2349, Mukim 11, Sungai Dua",13800,Butterworth,Seberang Perai Utara,P. Pinang,04-3564355,04-3566835,,,,5.441806,100.430726,0,0,NEW
486,21-0704002,KLINIK KESIHATAN KEPALA BATAS,"Lot 1466, Mukim 6, Jalan Sheikh Mohd Tahir",13200,Kepala Batas,Seberang Perai Utara,P. Pinang,04-5756755,04-5759155,,,,5.51663,100.433045,0,0,NEW
487,21-0704006,KLINIK KESIHATAN KUALA MUDA,"Lot 1794, Mukim 1, Jalan Kuala Muda",13110,Penaga,Seberang Perai Utara,P. Pinang,04-5793405,,,,,5.570465,100.359467,0,0,NEW
488,21-0704004,KLINIK KESIHATAN TASEK GELUGOR,"Lot 1944, Mukim 12",13300,Tasek Gelugor,Seberang Perai Utara,P. Pinang,04-5735025,,,,,5.483562,100.491544,0,0,NEW
489,21-0704002,KLINIK KESIHATAN BUTTERWORTH,"Lot 1699, Seksyen 4, Jalan Bagan Luar",12000,Butterworth,Seberang Perai Utara ,P. Pinang,04-3233828,04-3337884,,,,5.40678,100.36848,0,0,NEW
490,21-0704003,KLINIK KESIHATAN PENAGA,"Lot 3001, Mukim 5",13110,Penaga,Seberang Prai Utara,P. Pinang,04-5791718,04-5751649,,,,5.53535,100.38056,0,0,NEW
491,21-0705001,KLINIK KESIHATAN AIR ITAM,"Lot 322, Seksyen 3, Jalan Bukit Bendera",11500,Ayer Itam,Timur Laut,P. Pinang,04-8283355,04-8292389,,,,5.389701,100.285453,0,0,NEW
492,21-0705012,KLINIK KESIHATAN BANDAR BARU AIR ITAM,"Lot 10094 & 2584, Mukim 13, No 8 Jalan Angsana",11500,Bandar Baru Air Itam,Timur Laut,P. Pinang,04-8266267,04-8264810,,,,5.40575,100.2823,0,0,NEW
493,21-0705002,KLINIK KESIHATAN BUKIT BENDERA,Bukit Bendera,11300,Bukit Bendera,Timur Laut,P. Pinang,04-8299406,04-2819500,,,,5.42448,100.26904,0,0,NEW
494,21-0705002,KLINIK KESIHATAN BUKIT JAMBUL,Blok D No 2759 & 2758 Tingkat Bawah Taman Bukit Jambul,11900,Bukit Jambul,Timur Laut,P. Pinang,04-6448521,04-2819500,,,,5.336553,100.288166,0,0,NEW
495,21-0705004,KLINIK KESIHATAN SUNGAI DUA ,"Lot 2544, Mukim 13, Sungai Dua",11700,Gelugor,Timur Laut,P. Pinang,04-6422201,04-2819500,,,,5.34418,100.29756,0,0,NEW
496,21-0705002,KLINIK KESIHATAN JALAN MACALISTER,"Lot 1762, Seksyen 12, Jalan Macalister",10400,Georgetown,Timur Laut,P. Pinang,04-2289610,04-2819500,,,,5.4151,100.326065,0,0,NEW
497,21-0705002,KLINIK KESIHATAN JALAN PERAK,"Lot 174,175 & 648, Seksyen 2, Jalan Perak, Bandar Jelutong",11600,Georgetown,Timur Laut,P. Pinang,04-2812033,04-2819500,,,,5.402828,100.314595,0,0,NEW
498,21-0705003,KLINIK KESIHATAN LEBUH MUNTRI ,"Jalan Lebuh Muntri, Georgetown",10400,Georgetown,Timur Laut,P. Pinang,04-2620024,04-2819500,,,,5.42012,100.3361,0,0,NEW
499,21-0705004,KLINIK KESIHATAN TANJUNG BUNGAH,"Lot 1835, Jalan Lembah Permai",11200,Tanjung Bungah,Timur Laut,P. Pinang,04-8990953,,,,,5.461979,100.27955,0,0,NEW
500,21-1201006,"KLINIK KESIHATAN KOTA KLIAS, BEAUFORT",Kampung Kilas,89807,Beaufort,Beaufort,Sabah,087-881143,,,,,5.44751,115.62711,0,0,NEW
501,21-1201009,"KLINIK KESIHATAN PADAS DAMIT, BEAUFORT",Kampung Padas Damit,89807,Beaufort,Beaufort,Sabah,087-209653,088-897203,,,,5.343742,115.745043,0,0,NEW
502,21-1201013,"KLINIK KESIHATAN WESTON, BEAUFORT","Pekan Weston, Beaufort (d/a Pejabat Kesihatan Kawasan Beaufort, Peti Surat 101)",89807,Beaufort,Beaufort,Sabah,087-871201,,,,,5.214622,115.602629,0,0,NEW
503,21-1201008,"KLINIK KESIHATAN MEMBAKUT, BEAUFORT",Pekan Membakut,89728,Membakut,Beaufort,Sabah,087-887541,,,,,5.526393,115.691497,0,0,NEW
504,21-1202036,"KLINIK KESIHATAN ABUAN",Kampung Abuan,90108,Beluran,Beluran,Sabah,,,,,,5.284325, 115.227421,0,0,NEW
505,21-1202018,"KLINIK KESIHATAN JAMBONGAN, BELURAN","Pulau  Jambongan, Jambongan",90108,Beluran,Beluran,Sabah,089-239304,,,,,6.668010, 117.442000,0,0,NEW
506,21-1202022,"KLINIK KESIHATAN LINGKABAU, BELURAN","Kampung Lingkabau, Lingkabau",90108,Beluran,Beluran,Sabah,089-886603,,,,,6.21536,117.25767,0,0,NEW
507,21-1202030,"KLINIK KESIHATAN TAGAS-TAGAS","Kampung Tagas-Tagas,Tagas-tagas",90108,Beluran,Beluran,Sabah,089-239700,,,,,5.991773, 117.395598,0,0,NEW
508,21-1202032,"KLINIK KESIHATAN TERUSAN SUGUT",Kampung Terusan Sugut,90108,Beluran,Beluran,Sabah,098-239006,,,,,5.716771, 117.412776,0,0,NEW
509,21-1202008,"KLINIK KESIHATAN NANGOH RUMEDI, BELURAN",Kampung Nangoh Rumedi,90108,Nangoh,Beluran,Sabah,089-502003,088-502003,,,,5.95015,117.3284,0,0,NEW
510,21-1202009,"KLINIK KESIHATAN PAITAN, BELURAN",Pekan Paitan,90108,Paitan,Beluran,Sabah,089-262005,089-262005,,,,6.41083,117.39583,0,0,NEW
511,21-1202007,"KLINIK KESIHATAN KUALA SAPI, BELURAN",Kampung Kuala Sapi,90107,Sapi,Beluran,Sabah,088-552602,,,,,5.82722,117.44194,0,0,NEW
512,21-1202011,KLINIK KESIHATAN SUNGAI-SUNGAI,Kampung Sungai-Sungai,90107,Sungai Sungai,Beluran,Sabah,088-892002,,,,,6.25,117.36667,0,0,NEW
513,21-1202011,"KLINIK KESIHATAN TANGKARASON, BELURAN",Kampung Tangkarason,90108,Tangkarason,Beluran,Sabah,088-892001,,,,,5.716767,117.437474,0,0,NEW
514,21-1202012,"KLINIK KESIHATAN TELUPID, BELURAN",Pekan Telupid,89300,Telupid,Beluran,Sabah,089-521733,089-521733,,,,5.63,117.120457,0,0,NEW
515,21-1203005,"KLINIK KESIHATAN APIN-APIN, KENINGAU","Jalan Apin-Apin-Kota Kinabalu, Kg Kikiran",89007,Apin-Apin,Keningau,Sabah,087-337 371,,,,,5.4625,116.26214,0,0,NEW
516,21-1203005,KLINIK KESIHATAN BINGKOR,Jalan Bunsit,89007,Pekan Bingkor,Keningau,Sabah,087-391158,,,,,5.40444,116.19278,0,0,NEW
517,21-1203007,"KLINIK KESIHATAN MANSIAT, KENINGAU",Kg Manisat,89007,Sook,Keningau,Sabah,087-391158,,,,,5.340861,116.159749,0,0,NEW
518,21-1203010,"KLINIK KESIHATAN SOOK, KENINGAU",Jalan Tulid-Mansiat,89007,Sook,Keningau,Sabah,087-724003,087-332969,,,,5.148216,116.308656,0,0,NEW
519,21-1203012,"KLINIK KESIHATAN TULID, KENINGAU","Jalan Tulid, Kg. Tulid",89007,Sook,Keningau,Sabah,087-345002,,,,,5.326288,116.422398,0,0,NEW
520,21-1204015,"KLINIK KESIHATAN BATU PUTIH","Kampung Batu Putih, Jalan Kinabatangan Lahad Datu, Batu Putih",90200,Sandakan,Kinabatangan,Sabah,089-561975,,,,,5.916131, 118.037999,0,0,NEW
521,21-1204005,"KLINIK KESIHATAN BUKIT GARAM, KINABATANGAN",Bukit Garam,90200,Sandakan,Kinabatangan,Sabah,089-562151,,,,,5.59242,117.83387,0,0,NEW
522,21-1204010,"KLINIK KESIHATAN SUKAU, KINABATANGAN",Pekan Sukau,90200,Sukau,Kinabatangan,Sabah,089-816513,,,,,5.50932,118.29139,0,0,NEW
523,21-1223007,"KLINIK KESIHATAN KUAMUT, TONGOD",Pekan Kuamut,90200,Tongod,Kinabatangan,Sabah,089-232669,,,,,5.22167,117.49,0,0,NEW
524,21-1205006,"KLINIK KESIHATAN JAWI-JAWI, KOTA BELUD","Kg Jawi-Jawi, Jalan Bypass Kudat",89150,Kota Belud,Kota Belud,Sabah,088-976001,,,,,6.40086,116.438669,0,0,NEW
525,21-1205011,"KLINIK KESIHATAN TAGINAMBUR, KOTA BELUD","Batu 10, Jalan Ranau Bypass",89158,Kota Belud,Kota Belud,Sabah,088-976437,,,,,6.22611,116.44889,0,0,NEW
526,21-1206005,KLINIK KESIHATAN INANAM,"Jalan Kionsom, Pekan Inanam",88300,Inanam,Kota Kinabalu,Sabah,088-421694,088-421694,,,,5.98787,116.14261,0,0,NEW
527,21-1206007,KLINIK KESIHATAN LUYANG ,"Jalan Lintas, Luyang",88300,Kota Kinabalu,Kota Kinabalu,Sabah,088-715000,088-715006,,,,5.946239,116.090914,0,0,NEW
528,21-1206008,KLINIK KESIHATAN MENGGATAL,"Jalan Tuaran Lama, Pekan Menggatal",88300,Kota Kinabalu,Kota Kinabalu,Sabah,088-493915,088-491422,,,,6.029743,116.158043,0,0,NEW
529,21-1206022,"KLINIK KESIHATAN LIKAS","Jalan Haiwan, Kampung Likas",88400,Likas,Kota Kinabalu,Sabah,088-433357,088-726329,,,,6.004151, 116.115999,0,0,NEW
530,21-1206011,KLINIK KESIHATAN TELIPOK,"Jalan Tuaran, Pekan Telipok",88300,Telipok,Kota Kinabalu,Sabah,088-492057,088-492057,,,,6.089103,116.19778,0,0,NEW
531,21-1207011,"KLINIK KESIHATAN TANDEK, KOTA MARUDU","Pekan Tandek, Tandek",89108,Kota Marudu,Kota Marudu,Sabah,088-661533/ 088-6618,088-661658,,,,6.533609,116.851851,0,0,NEW
532,21-1207007,"KLINIK KESIHATAN LANGKON, KOTA MARUDU",Kampung Langkon,89108,Kudat,Kota Marudu,Sabah,088-667320,,,,,6.533017,116.704327,0,0,NEW
533,21-1208020,"KLINIK KESIHATAN KERUKAN, KUALA PENYU",Kampung Kerukan Sipitang,89760,Kuala Penyu,Kuala Penyu,Sabah,087-897260,087-212096,,,,5.477001, 115.523999,0,0,NEW
534,21-1201008,"KLINIK KESIHATAN MENUMBOK, KUALA PENYU",Pekan Menumbok,89807,Menumbok,Kuala Penyu,Sabah,087-831066,087-831066,,,,5.30298,115.36962,0,0,NEW
535,21-1209006,"KLINIK KESIHATAN KARAKIT, KUDAT","Kampung Karakit, Pulau Banggi",89059,Banggi,Kudat,Sabah,088-671526,,,,,6.901885,116.849227,0,0,NEW
536,21-1209025,"KLINIK KESIHATAN NARANDANG, KUDAT","Kampung Garau, Narandang",89059,Kudat,Kudat,Sabah,088-896524,,,,,6.774409,116.754545,0,0,NEW
537,21-1209029,"KLINIK KESIHATAN SUANGPAI, KUDAT",Kg Suangpai,89059,Kudat,Kudat,Sabah,088-896609,,,,,6.997891, 116.764999,0,0,NEW
538,21-1209008,"KLINIK KESIHATAN NANGKA LOTONG, KUDAT",Kg Lotong,89059,Lotong,Kudat,Sabah,088-637014,,,,,6.73583,116.8,0,0,NEW
539,21-1209007,"KLINIK KESIHATAN MATUNGGONG, KUDAT",Kg. Matunggong,89059,Matunggong,Kudat,Sabah,088-621897,,,,,6.902079,116.848849,0,0,NEW
540,21-1209010,"KLINIK KESIHATAN SIKUATI, KUDAT",Pekan Sikuati,89059,Sikuati,Kudat,Sabah,088-612381,,,,,6.890101,116.711776,0,0,NEW
541,21-1209012,"KLINIK KESIHATAN TINANGOL, KUDAT",Kampung Tinangol,89059,Tinangol,Kudat,Sabah,088-613702,,,,,6.77222,116.70306,0,0,NEW
542,21-1211016,"KLINIK KESIHATAN BUKIT BELACON, LAHAD DATU","Bukit Belacan, Segama",91120,Lahad Datu,Lahad Datu,Sabah,089-845001,089-88380,,,,5.095951, 118.229999,0,0,NEW
543,21-1211005,"KLINIK KESIHATAN FELDA SAHABAT, LAHAD DATU","Desa Kencana,Felda Sahabat 16",91120,Lahad Datu,Lahad Datu,Sabah,089-811912,,,,,5.07722,119.0725,0,0,NEW
544,21-1211007,KLINIK KESIHATAN LAHAD DATU ,"Jalam Silam, Bandar Lahad Datu",91120,Lahad Datu,Lahad Datu,Sabah,089-885110,089-883806,,,,5.027745,118.316356,0,0,NEW
545,21-1211010,"KLINIK KESIHATAN SILABUKAN SCHEME, LAHAD DATU",Kampung Silabukan,91120,Silabukan,Lahad Datu,Sabah,089-821510,,,,,5.00851,118.479169,0,0,NEW
546,21-1211010,"KLINIK KESIHATAN PULAU TAMBISAN, LAHAD DATU",Pekan Tambisan,91120,Tambisan,Lahad Datu,Sabah,089-816001,,,,,5.446408,119.149733,0,0,NEW
547,21-1211012,"KLINIK KESIHATAN TUNGKU, LAHAD DATU",Pekan Tungku,91120,Tungku,Lahad Datu,Sabah,089-871125,,,,,5.025387,118.883722,0,0,NEW
548,21-1212009,"KLINIK KESIHATAN PAGALUNGAN, NABAWAN ","Simpang Tiga Sungai Pensiangan Lolongan, Kampung Pagalungan",89957,Pensiangan,Nabawan,Sabah,087-743001,,,,,5.340885,116.159457,0,0,NEW
549,21-1212010,"KLINIK KESIHATAN SEPULOT, NABAWAN",Pekan Sepulot,89957,Pensiangan,Nabawan,Sabah,087-773005,,,,,4.705061,116.485402,0,0,NEW
550,21-1212008,KLINIK KESIHATAN NABAWAN,Pekan Nabawan,89957,Pesiangan,Nabawan,Sabah,087-366199,087-366954,,,,5.34108,116.159728,0,0,NEW
551,21-1212009,"KLINIK KESIHATAN PENSIANGAN, NABAWAN",Pekan Pesiangan,89957,Pesiangan,Nabawan,Sabah,087-366220,,,,,5.341078,116.160092,0,0,NEW
552,21-1213005,KLINIK KESIHATAN BONGAWAN,Jln. Besar Pekan Bongawan,89700,Bongawan,Papar,Sabah,087-861771,087-861914,,,,5.539394,115.854097,0,0,NEW
553,21-1213006,KLINIK KESIHATAN KINARUT ,"Jalan Spur, Pekan Kinarut",89608,Kinarut,Papar,Sabah,088-754039,088-750331,,,,5.830504,116.036865,0,0,NEW
554,21-1213041,"KLINIK KESIHATAN KUALA PAPAR",Kampung Kuala Papar,89700,Papar,Papar,Sabah,088-911028,,,,,5.746671, 115.908999,0,0,NEW
555,21-1213032,"KLINIK KESIHATAN ULU KIMANIS, PAPAR","Kampung Ulu Kimanis, Kimanis",89700,Papar,Papar,Sabah,087-730204,088-914773,,,,5.568890, 115.955999,0,0,NEW
556,21-1214009,KLINIK KESIHATAN PENAMPANG,"KM 12, Jalan Tambunan, WDT 29",89500,Donggongon,Penampang,Sabah,088-717978,088-717267,,,,5.915743,116.117597,0,0,NEW
557,21-1215005,"KLINIK KESIHATAN BONGKOL, PITAS","Kampung Bongkol, Bongkol",89059,Kudat,Pitas,Sabah,088-684940,,,,,6.82839,117.16471,0,0,NEW
558,21-1215005,"KLINIK KESIHATAN DANDUN, PITAS","Kampung Dandun, Dandun",89059,Kudat,Pitas,Sabah,088-687849,,,,,6.708837,117.031531,0,0,NEW
559,21-1215009,"KLINIK KESIHATAN PANTAI, PITAS","Kampung Pantai, Pantai",89059,Kudat,Pitas,Sabah,088-675008,,,,,6.901932,116.849094,0,0,NEW
560,21-1215011,"KLINIK KESIHATAN TELAGA, PITAS","Kampung Telaga, Telaga, Pitas",89059,Kudat,Pitas,Sabah,088-638005,,,,,6.840427,117.073789,0,0,NEW
561,21-1214010,KLINIK KESIHATAN PUTATAN,KM 11 Jalan Putatan,89500,Donggongong,Putatan,Sabah,088-765704,088-756561,,,,5.898883,116.046601,0,0,NEW
562,21-1216005,"KLINIK KESIHATAN BUNDU TUHAN, RANAU","Jalan Keranau, Kg Bundu Tuhan",89308,Ranau,Ranau,Sabah,088-889505,088-889505,,,,5.98222,116.53139,0,0,NEW
563,21-1216006,"KLINIK KESIHATAN KAINGARAN, RANAU",Kampung Kaingaran,89307,Ranau,Ranau,Sabah,088-894000,,,,,6.09083,116.975,0,0,NEW
564,21-1216007,"KLINIK KESIHATAN KUNDASANG, RANAU",Jalan Kampung Lembah Permai,89307,Ranau,Ranau,Sabah,088-889722,088-889722,,,,5.990717,116.579356,0,0,NEW
565,21-1216009,"KLINIK KESIHATAN PAGINATAN, RANAU",Kampung Paginatan,89307,Ranau,Ranau,Sabah,088-897203,,,,,5.772412,116.822082,0,0,NEW
566,21-1216009,"KLINIK KESIHATAN PERANCANGAN, RANAU",Kg Perancangan,89307,Ranau,Ranau,Sabah,088-666102,,,,,6.07318,116.80058,0,0,NEW
567,21-1216012,"KLINIK KESIHATAN TIMBUA, RANAU","Kampung Timbua (Pejabat Kesihatan Ranau, Peti Surat 32)",89307,Ranau,Ranau,Sabah,088-959027,,,,,6.10528,116.83028,0,0,NEW
568,21-1217015,"KLINIK KESIHATAN BATU 10, SANDAKAN",Batu 10,90500,Sandakan,Sandakan,Sabah,089-537649,089-668493,,,,5.901971, 118.001773,0,0,NEW
569,21-1217027,"KLINIK KESIHATAN PULAU LIBARAN, SANDAKAN",Kg Pulau Libaran,90500,Sandakan,Sandakan,Sabah,089-668493,089-668493,,,,6.110540, 118.018000,0,0,NEW
570,21-1217026,"KLINIK KESIHATAN PULAU NUNUYAN",Kg Pulau Nunuyun,90500,Sandakan,Sandakan,Sabah,089-239600,089-668493,,,,5.914822, 118.105999,0,0,NEW
571,21-1217036,KLINIK KESIHATAN SANDAKAN ,"Kilometer 3.2, Jalan Utara",90500,Sandakan,Sandakan,Sabah,089-225800,089-225406,,,,5.861339,118.102097,0,0,NEW
572,21-1217010,"KLINIK KESIHATAN SUAN LAMBA, SANDAKAN",Kampung Suan Lamba,90500,Suan Lamba,Sandakan,Sabah,089-258009,,,,,5.599239,118.122193,0,0,NEW
573,21-1217011,"KLINIK KESIHATAN SUNGAI MANILA, SANDAKAN",Kampung Sungai Manila,90500,Sungai Manila,Sandakan,Sabah,089-531377,,,,,5.96651,117.98228,0,0,NEW
574,21-1217012,"KLINIK KESIHATAN ULU DUSUN, SANDAKAN","Kampung Ulu Dusun, Ulu Dusun",90500,Tongod,Sandakan,Sabah,089-568826,089-568826,,,,5.78526,117.76872,0,0,NEW
575,21-1218009,"KLINIK KESIHATAN PULAU BUM-BUM, SEMPORNA",Kg Pulau Bum-Bum,91308,Semporna,Semporna,Sabah,089-792003,,,,,4.46389,118.66861,0,0,NEW
576,21-1218034,KLINIK KESIHATAN SEMPORNA,"Kg Semporna (Pejabat Kesihatan Semporna, Peti Surat no 395)",91308,Semporna,Semporna,Sabah,089-781695,089-784841,,,,4.48124,118.60605,0,0,NEW
577,21-1219008,"KLINIK KESIHATAN MELIGAN, SIPITANG",Kampung Meligan,89857,Meligan,Sipitang,Sabah,087-821066,,,,,4.679,115.71016,0,0,NEW
578,21-1219008,KLINIK KESIHATAN MENDULONG,Kampung Mendulong,89857,Mendulong,Sipitang,Sabah,087 -721163,,,,,5.343696,115.744953,0,0,NEW
579,21-1219010,"KLINIK KESIHATAN SINDUMIN, SIPITANG",Pekan Sindumin,89857,Sindumin,Sipitang,Sabah,087-811134,,,,,4.962366,115.505641,0,0,NEW
580,21-1219023,"KLINIK KESIHATAN LONG PASIA, SIPITANG","Kampung Long Pasia, Long Pasia",89857,Sipitang,Sipitang,Sabah,087-821066/ 087-8215,087-822862,,,,4.416669, 115.766669,0,0,NEW
581,21-1220026,"KLINIK KESIHATAN PATAU, TAMBUNAN","Jalan Tambunan-Ranau, KM 12",89657,Tambunan,Tambunan,Sabah,087-773318,087-332969,,,,5.760235, 116.441984,0,0,NEW
582,21-1220011,"KLINIK KESIHATAN SUNSURON, TAMBUNAN","Jalan Tambunan-Kota Kinabalu, Simpang Kanan, SK Sunsuron",89657,Tambunan,Tambunan,Sabah,087-773318,087-332969,,,,5.744544,116.375559,0,0,NEW
583,21-1221005,KLINIK KESIHATAN APAS BALUNG,Jalan Apas Balung,91008,Tawau,Tawau,Sabah,089-951029,089-951029,,,,4.32262,118.09317,0,0,NEW
584,21-1221012,"KLINIK KESIHATAN FELDA UMAS UMAS, TAWAU","Tingkat 7, Bangunan Persekutuan, Peti Surat 990",91008,Tawau,Tawau,Sabah,089-926540,,,,,4.47472,117.66306,0,0,NEW
585,21-1221008,KLINIK KESIHATAN MEROTAI BESAR,Jalan SMK Merotai,91008,Tawau,Tawau,Sabah,089-902601,089-902601,,,,4.41361,117.77778,0,0,NEW
586,21-1221011,"KLINIK KESIHATAN SUNGAI TAMANG, TAWAU",Kampung Sungai Tamang,91008,Tawau,Tawau,Sabah,089-797100,,,,,4.25,117.667,0,0,NEW
587,21-1221042,"KLINIK KESIHATAN TAWAU","Pejabat Kesihatan Daerah Tawau, Tingkat 7, Wisma Persekutuan, Peti Surat 990",91008,Tawau,Tawau,Sabah,,,,,,4.282458,117.914786,0,0,NEW
588,21-1222006,"KLINIK KESIHATAN KEMABONG, TENOM",Pekan Kembong,89907,Kemabong,Tenom,Sabah,087-736896,087-332969,,,,4.91639,115.93333,0,0,NEW
589,21-1222007,"KLINIK KESIHATAN KUALA TOMANI, TENOM ",Kampung Kuala Tonomi,89907,Tenom,Tenom,Sabah,087-741004,087-332969,,,,4.85213,115.88863,0,0,NEW
590,21-1222008,"KLINIK KESIHATAN MELALAP, TENOM",Pekan Melalap,89007,Tenom,Tenom,Sabah,087-302409,087-332969,,,,5.263499,116.002748,0,0,NEW
591,21-1223009,"KLINIK KESIHATAN PENANGAH, TONGOD",Pekan Penangah,90200,Kinabatangan,Tongod,Sabah,087-721917,,,,,5.21028,116.835,0,0,NEW
592,21-1223017,"KLINIK KESIHATAN ENTILIDON, TONGOD","Jalan Tongod, Kampung Entilibon, Kinabatangan",90200,Tongod,Tongod,Sabah,089-561975,089-561976,,,,5.559950, 117.222748,0,0,NEW
593,21-1223024,"KLINIK KESIHATAN MENGKAWAGU, TONGOD","Jalan Tongod, Kampung Mengkawagu",90200,Tongod,Tongod,Sabah,087-721918,,,,,5.156916,117.082521,0,0,NEW
594,21-1223025,"KLINIK KESIHATAN MINUSOH, TONGOD","Kampung Minusoh, Kinabatangan",90200,Tongod,Tongod,Sabah,087-721923,089-561976,,,,5.260303, 116.985242,0,0,NEW
595,21-1223012,KLINIK KESIHATAN TONGOD,Pekan Tongod,90200,Tongod,Tongod,Sabah,087-719004,089-561976,,,,5.274559,116.975082,0,0,NEW
596,21-1224006,"KLINIK KESIHATAN KIULU, TUARAN",Jalan Keluk,89207,Tamparuli,Tuaran,Sabah,088-782830,,,,,6.050403,116.280839,0,0,NEW
597,21-1224011,"KLINIK KESIHATAN TAMPARULI, TUARAN",W.D.T 59,89275,Tamparuli,Tuaran,Sabah,088-782349,088-782349,,,,6.1356,116.26818,0,0,NEW
598,21-1224029,"KLINIK KESIHATAN SERUSOP, TUARAN","Jalan SRK Serusop, Kampung Serusop",89208,Tuaran,Tuaran,Sabah,088-794311,,,,,6.247561,116.240001,0,0,NEW
599,21-1224012,"KLINIK KESIHATAN TENGHILAN, TUARAN",Jalan Kampung Tenghilan Tuaran,89208,Tuaran,Tuaran,Sabah,088-981249,,,,,6.255727,116.335881,0,0,NEW
600,21-1301004,KLINIK KESIHATAN ASAJAYA,Kampung Asajaya,94600,Asajaya,Asajaya,Sarawak,082-827080,082-827082,,,,1.54415,110.60733,0,0,NEW
601,21-1301007,KLINIK KESIHATAN JEMUKAN,Kampung Jemukan,94600,Asajaya,Asajaya,Sarawak,082-827604,082-827604,,,,1.551713,110.691588,0,0,NEW
602,21-1301017,KLINIK KESIHATAN SADONG JAYA,Kampung Sadong Jaya,94600,Asajaya,Asajaya,Sarawak,082-821248,082-821248,,,,1.515457,110.740089,0,0,NEW
603,21-1301019,KLINIK KESIHATAN SEMERA,Kampunga Samera,94600,Asajaya,Asajaya,Sarawak,082-826372,082-826372,,,,1.551736,110.672908,0,0,NEW
604,21-1302024,KLINIK KESIHATAN KROKONG,"Jalan Bau Serikin, Kampung Krokong (D/A Pejabat Kesihatan Bahagian Kuching, Jln Tun Ahmad Zaidi Adruce)",94000,Bau,Bau,Sarawak,082-763116,,,,,1.365973,110.117797,0,0,NEW
605,21-1302019,KLINIK KESIHATAN SERASOT,Kampung Serasot (D/A Peg. Kesihatan Bahagian Kuching Jalan Tun Ahmad Zaidi Adruce),93250,Bau,Bau,Sarawak,082-371036,,,,,1.3781,110.04572,0,0,NEW
606,21-1302019,KLINIK KESIHATAN SINGAI,"Jalan Kawah, Kampung Singai (D/A  Peg. Kesihatan Bahagian Kuching, Jalan Tun Ahmad Zaidi Adruce)",93250,Bau,Bau,Sarawak,018-2110499,,,,,1.492666,110.170873,0,0,NEW
607,21-1303005,KLINIK KESIHATAN BELAGA,Pekan Kecil Belaga,96800,Belaga,Belaga,Sarawak,086-461323,086-461508,,,,2.70662,113.78298,0,0,NEW
608,21-1303012,KLINIK KESIHATAN LUSONG LAKU,Kampung Lusong  Laku,96800,Belaga,Belaga,Sarawak,086-464147,086-461508,,,,2.463398,114.250335,0,0,NEW
609,21-1303017,KLINIK KESIHATAN PUNAN BAH,Kampung Punan Bah,96800,Belaga,Belaga,Sarawak,084-461323,,,,,2.3826,113.349866,0,0,NEW
610,21-1303020,KLINIK KESIHATAN SUNGAI ASAP,Pekan Sungai Asap,96800,Belaga,Belaga,Sarawak,013-8657739,086-461508,,,,3.04448,113.915865,0,0,NEW
611,21-1303020,KLINIK KESIHATAN SUNGAI KOYAN,Kampung Sungai Koyan,96800,Belaga,Belaga,Sarawak,09-3401533,,,,,3.103531,113.924488,0,0,NEW
612,21-1303023,KLINIK KESIHATAN UMA SAMBOP,Kampung Uma Sambop,96800,Belaga,Belaga,Sarawak,086-485165,,,,,2.91826,113.91595,0,0,NEW
613,21-1304038,KLINIK KESIHATAN MID LAYAR,Betong,95700,Betong,Betong,Sarawak,083-472704,083-472116,,,,1.463383,111.566646,0,0,NEW
614,21-1304015,KLINIK KESIHATAN NANGA LAWIH (MUJAU),Nanga Lawih (D/A Pegawai Kesihatan Bahagian Betong),95700,Betong,Betong,Sarawak,083-775503,,,,,1.32955,111.65411,0,0,NEW
615,21-1304016,KLINIK KESIHATAN NANGA TIGA,Kampung Ng Tiga,95700,Betong,Betong,Sarawak,084-775504,,,,,1.60815,111.69755,0,0,NEW
616,21-1304007,KLINIK KESIHATAN DEBAK,"Debak, Saribas",95500,Debak,Betong,Sarawak,083-464570,083-464570,,,,1.5644,111.42377,0,0,NEW
617,21-1304022,KLINIK KESIHATAN TUIE,"Kampung Tuie, Pusa, Saribas",95500,Debak,Betong,Sarawak,083-569508,,,,,1.54011,111.34764,0,0,NEW
618,21-1304005,KLINIK KESIHATAN BELADIN,"Beladin, Saribas",94950,Pusa,Betong,Sarawak,083-406448,,,,,1.63837,111.20425,0,0,NEW
619,21-1304017,KLINIK KESIHATAN PUSA,Pekan Pusa,94950,Pusa,Betong,Sarawak,083-465155,083-465155,,,,1.61096,111.28986,0,0,NEW
620,21-1304019,KLINIK KESIHATAN SEMARANG,Pekan Semarang,94950,Pusa,Betong,Sarawak,083-468007,,,,,1.681967,111.102466,0,0,NEW
621,21-1304012,KLINIK KESIHATAN MELUDAM,Meludam,94850,Saribas,Betong,Sarawak,083-408212,083-547212,,,,1.659799,111.03473,0,0,NEW
622,21-1304019,KLINIK KESIHATAN SPAOH,Kampung Spaoh,95600,Spaoh,Betong,Sarawak,083-473339,083-473339,,,,1.453404,111.481332,0,0,NEW
623,21-1305006,KLINIK KESIHATAN BINTULU,Lebuh Raya Abang Galau,97000,Bintulu,Bintulu,Sarawak,086-331455,086-339094,,,,3.17359,113.03704,0,0,NEW
624,21-1305038,KLINIK KESIHATAN JEPAK,"Jalan Jepak, Kuala Tatau",97000,Bintulu,Bintulu,Sarawak,086-201089,,,,,3.190571,113.090110,0,0,NEW
625,21-1305011,KLINIK KESIHATAN LUBOK TAPANG,"Lubok Tapang (D/A Peg. Kesihatan Bahagian Bintulu, Lebuh Raya Abang Galau)",97000,Bintulu,Bintulu,Sarawak,086-469003,,,,,3.15108,113.37012,0,0,NEW
626,21-1305009,KLINIK KESIHATAN NYALAU,Kampung Tengah Nyalau,97000,Bintulu,Bintulu,Sarawak,085-776002,,,,,3.63825,113.37932,0,0,NEW
627,21-1305018,KLINIK KESIHATAN SEBAUH,"Pekan Sebauh (D/A Peg. Kesihatan Bahagian Bintulu, Lebuh Raya Abang Galau)",97000,Bintulu,Bintulu,Sarawak,086-422233,086-422233,,,,3.11049,113.26816,0,0,NEW
628,21-1305022,KLINIK KESIHATAN TUBAU,"Pekan Tubau, Bintulu (D/A Peg. Kesihatan Bahagian Bintulu, Lebuh Raya Abang Galau)",97000,Bintulu,Bintulu,Sarawak,086-472104,,,,,3.160199,113.701678,0,0,NEW
629,21-1305037,KLINIK KESIHATAN GAGATAU,Gagatau,97200,Tatau,Bintulu,Sarawak,019-8548807,,,,,2.937337,112.893964,0,0,NEW
630,21-1331008,KLINIK KESIHATAN KAKUS,"Kakus (Pej. Kesihatan Bahagian Bintulu, Lebuh Raya Abang Galau)",97000,Tatau,Bintulu,Sarawak,086-474302,,,,,2.634457,113.151526,0,0,NEW
631,21-1331009,KLINIK KESIHATAN KUALA TATAU,Kampung Kuala Tatau,97200,Tatau,Bintulu,Sarawak,086-326287,,,,,3.078361,112.800944,0,0,NEW
632,21-1306009,KLINIK KESIHATAN KUALA OYA,Kampung Kuala Oya,96300,Dalat,Dalat,Sarawak,084-865231,084-865231,,,,2.858519,111.877221,0,0,NEW
633,21-1306015,KLINIK KESIHATAN NANGA BAOH,Kampung Nanga Baoh,96300,Dalat,Dalat,Sarawak,011-257494,,,,,2.583694,112.049524,0,0,NEW
634,21-1307005,KLINIK KESIHATAN BELAWAI,Belawai,96200,Daro,Daro,Sarawak,084-815219,,,,,2.23056,111.214776,0,0,NEW
635,21-1307006,KLINIK KESIHATAN BETANAK,Betanak,96200,Daro,Daro,Sarawak,019-8367446,,,,,2.633915,111.295032,0,0,NEW
636,21-1307007,KLINIK KESIHATAN DARO,Daro,96200,Daro,Daro,Sarawak,084-823333,084-823886,,,,2.51202,111.43349,0,0,NEW
637,21-1307009,KLINIK KESIHATAN KUALA REJANG,Kuala Rajang,96250,Daro,Daro,Sarawak,084-612368,,,,,2.15494,111.255492,0,0,NEW
638,21-1307015,KLINIK KESIHATAN NANGA SEMAH,Nanga Semah,96200,Daro,Daro,Sarawak,019-210006,,,,,2.36002,111.51261,0,0,NEW
639,21-1307016,KLINIK KESIHATAN PALOH,Kampung Paloh,96200,Daro,Daro,Sarawak,084-8663409,,,,,2.41842,111.25285,0,0,NEW
640,21-1307021,KLINIK KESIHATAN TANJUNG MANIS,Pekan Tanjung Manis,96200,Daro,Daro,Sarawak,084-613236,,,,,2.151349,111.360155,0,0,NEW
641,21-1307021,KLINIK KESIHATAN TEKAJONG,Kampung Tekajong,96200,Daro,Daro,Sarawak,019-8364561,,,,,2.739262,111.304668,0,0,NEW
642,21-1307006,KLINIK KESIHATAN BRUIT,Bruit,96200,Mukah,Daro,Sarawak,017-2100000,,,,,2.709031,111.369778,0,0,NEW
643,21-1308007,KLINIK KESIHATAN JULAU,Pekan Julau,96600,Julau,Julau,Sarawak,084-734253,084-734253,,,,2.02596,111.91293,0,0,NEW
644,21-1308009,KLINIK KESIHATAN LASSI,Kampung Lassi,96600,Julau,Julau,Sarawak,084-734253,084-823624,,,,1.96053,111.78273,0,0,NEW
645,21-1308014,KLINIK KESIHATAN MAONG (MUJOK),Kampung Maong,96600,Julau,Julau,Sarawak,084-734253,,,,,1.73997,112.03309,0,0,NEW
646,21-1308015,KLINIK KESIHATAN NANGA ENSIRING,"Kampung Ensiring (Pen. Peg. Perubatan Y/M, KK Julau, Julau)",96600,Julau,Julau,Sarawak,084-775505,,,,,1.66321,112.03503,0,0,NEW
647,21-1308013,KLINIK KESIHATAN NANGA ENTABAI,Kampung Nanga Entabai,96600,Julau,Julau,Sarawak,084-721005,,,,,1.792228,111.921208,0,0,NEW
648,21-1308018,KLINIK KESIHATAN SEKALONG,Kampung Sekalong,96600,Julau,Julau,Sarawak,084-738900,,,,,1.90385,111.85042,0,0,NEW
649,21-1309012,KLINIK KESIHATAN MACHAN,Pekan Machan (D/A Peg. Kesihatan Daerah Kanowit),96700,Kanowit,Kanowit,Sarawak,084-738116,,,,,2.01494,112.02013,0,0,NEW
650,21-1309015,KLINIK KESIHATAN NANGA JAGAU,Kampung Nanga Jagau (D/A Peg. Kesihatan Daerah Kanowit),96700,Kanowit,Kanowit,Sarawak,013-2865112,084-753860,,,,1.8596,112.30601,0,0,NEW
651,21-1309014,KLINIK KESIHATAN NANGA POI (MENALUN),Kampung Nanga Poi (D/A Peg. Kesihatan Daerah Kanowit),96700,Kanowit,Kanowit,Sarawak,013-2865114,,,,,2.033117,112.261047,0,0,NEW
652,21-1309016,KLINIK KESIHATAN NGUNGUN,Kampung Ngungun (D/A Peg. Kesihatan Daerah Kanowit),96700,Kanowit,Kanowit,Sarawak,013-2865113,,,,,1.98503,112.40318,0,0,NEW
653,21-1310008,KLINIK KESIHATAN KAPIT,Jalan Bleteh,96800,Kapit,Kapit,Sarawak,084-799661,084-798153,,,,2.01164,112.92896,0,0,NEW
654,21-1310013,KLINIK KESIHATAN NANGA BENA,"Jalan Sungai Bena, Rumah Panjang (D/A Peg. Kesihatan Bahagian Kapit, Wisma Persekutuan)",96800,Kapit,Kapit,Sarawak,084-796404,084-796454,,,,1.98176,113.1057,0,0,NEW
655,21-1310013,KLINIK KESIHATAN NANGA ENTAWAU,"Kampung Entawau (D/A Peg. Kesihatan Bahagian Kapit, Wisma Persekutuan)",96800,Kapit,Kapit,Sarawak,084-796404,,,,,1.822061,113.680009,0,0,NEW
656,21-1310013,KLINIK KESIHATAN NANGA GAAT,"Kampung Nanga Gaat (D/A Peg. Kesihatan Bahagian Kapit, Wisma Persekutuan)",96800,Kapit,Kapit,Sarawak,084-796404,084-796454,,,,1.883587,113.448278,0,0,NEW
657,21-1310013,KLINIK KESIHATAN NANGA IBAU,"Kampung Nanga Ibau, Sungai Batang Rajang (D/A Peg. Kesihatan Bahagian, Bahaigan Kapit, Wisma Persekutuan, Kapit)",96800,Kapit,Kapit,Sarawak,084-796454,,,,,2.011244,112.705028,0,0,NEW
658,21-1310012,KLINIK KESIHATAN NANGA MELINAU,"Nanga Melinau, Sungai Mujong (D/A Peg. Kesihatan Bahagian Kapit, Wisma Persekutuan)",96800,Kapit,Kapit,Sarawak,084-796404,084-796454,,,,1.975441,112.929397,0,0,NEW
659,21-1310014,KLINIK KESIHATAN NANGA MERIRAI,"Kampung Nanga Merirai (D/A Peg. Kesihatan Bahagian Kapit, Wisma Persekutuan)",96800,Kapit,Kapit,Sarawak,084-796404,084-796454,,,,1.84839,113.57477,0,0,NEW
660,21-1310014,KLINIK KESIHATAN NANGA MUJONG,"Kampung Nanga Mujong, Sungai Mujong",96800,Kapit,Kapit,Sarawak,084-796404,084-796454,,,,2.02839,113.1715,0,0,NEW
661,21-1310018,KLINIK KESIHATAN SEKEROH,"Sungai Sekeroh (D/A Peg. Kesihatan Bahagian Kapit, Wisma Persekutuan)",96800,Kapit,Kapit,Sarawak,086-429704,,,,,2.08447,113.23704,0,0,NEW
662,21-1310022,KLINIK KESIHATAN TUNOH SCHEME,"Kampung Tunoh Scheme (D/A Peg. Kesihatan Bahagian Kapit, Wisma Persekutuan)",96800,Kapit,Kapit,Sarawak,084-796404,084-796454,,,,2.050537,113.670679,0,0,NEW
663,21-1311004,KLINIK KESIHATAN BAKO,"Jalan Bako, Kampung Bako (D/A Peg. Kesihatan Bahagian Kuching, Jalan Tun Ahmad Zaidi Adruce)",93150,Bako,Kuching,Sarawak,082-475967/ 082-4313,,,,,1.65902,110.43789,0,0,NEW
664,21-1311005,KLINIK KESIHATAN BATU KAWA,"Jalan Eng Sing, Off Jalan Stapok",93250,Batu Kawa,Kuching,Sarawak,082-688518,082-685829,,,,1.51102,110.27061,0,0,NEW
665,21-1311006,KLINIK KESIHATAN BUNTAL,Jalan Tengah,93050,Kuching,Kuching,Sarawak,082-846493,,,,,1.70172,110.37032,0,0,NEW
666,21-1311006,KLINIK KESIHATAN BUNUK,Jalan Puncak Borneo,93250,Kuching,Kuching,Sarawak,082-765963,082-414542,,,,1.316243,110.286048,0,0,NEW
667,21-1311012,KLINIK KESIHATAN JALAN MASJID ,Jalan Masjid,93400,Kuching,Kuching,Sarawak,082-427110/ 082-4150,082-235785,,,,1.557219,110.342823,0,0,NEW
668,21-1311008,KLINIK KESIHATAN KOTA SENTOSA,"Kota Sentosa, Jalan Stakan",93250,Kuching,Kuching,Sarawak,082-626080/ 082-6260,082-626090,,,,1.46426,110.3338,0,0,NEW
669,21-1311016,KLINIK KESIHATAN PADAWAN,Jalan Puncak Borneo,93250,Kuching,Kuching,Sarawak,082-617687/ 011-2108,,,,,1.1626,110.25954,0,0,NEW
670,21-1311018,KLINIK KESIHATAN SANTUBONG,Jalan Sultan Tengah,93050,Kuching,Kuching,Sarawak,082-846439,,,,,1.718688,110.315037,0,0,NEW
671,21-1311019,KLINIK KESIHATAN SIBURAN,"KM 27, Jalan Kuching/Serian",93250,Kuching,Kuching,Sarawak,082-864202,082-864202,,,,1.36084,110.40474,0,0,NEW
672,21-1311020,KLINIK KESIHATAN TANAH PUTEH,"Tanah Puteh, Jalan Pending, Kuching (Pegawai Perubatan Y/M, KK Tanah Puteh, Jln Pending, Kuching)",93450,Kuching,Kuching,Sarawak,082-344011/ 082-4825,082-342019,,,,1.551387,110.380385,0,0,NEW
